Channel Number,Channel Name,Channel Type,Rx Frequency,Tx Frequency,Bandwidth (kHz),Colour Code,Timeslot,Contact,TG List,DMR ID,TS1_TA_Tx,TS2_TA_Tx ID,RX Tone,TX Tone,Squelch,Power,Rx Only,Zone Skip,All Skip,TOT,VOX,No Beep,No Eco,APRS,Latitude,Longitude,Use Location
1,Botkyrka 2,Digital,	434.87500,	432.87500,,0,2,None,Default,None,Text,Text,,,,Master,No,No,No,120,Off,No,No,None,59.2507,17.879,Yes
2,Brottby 1,Analogue,	145.65000,	145.05000,12.5,,,,,,,,77.0,77.0,Disabled,Master,No,No,No,120,Off,No,No,None,59.5753,18.2634,Yes
3,Brottby 2,Analogue,	434.80000,	432.80000,12.5,,,,,,,,77.0,77.0,Disabled,Master,No,No,No,120,Off,No,No,None,59.5041,18.1378,Yes
4,Dalaro,Digital,	434.83750,	432.83750,,0,2,None,Default,None,Text,Text,,,,Master,No,No,No,120,Off,No,No,None,59.1353,18.4106,Yes
5,Hagsatra L,Analogue,	434.42500,	434.42500,12.5,,,,,,,,91.5,91.5,Disabled,Master,No,No,No,120,Off,No,No,None,59.2658,18.0193,Yes
6,Haninge 1,Analogue,	145.68750,	145.08750,12.5,,,,,,,,77.0,77.0,Disabled,Master,No,No,No,120,Off,No,No,None,59.1704,18.1663,Yes
7,Haninge 2,Analogue,	434.75000,	432.75000,12.5,,,,,,,,77.0,77.0,Disabled,Master,No,No,No,120,Off,No,No,None,59.1704,18.1663,Yes
8,Haninge 3,Analogue,	434.77500,	432.77500,12.5,,,,,,,,77.0,77.0,Disabled,Master,No,No,No,120,Off,No,No,None,59.17,18.1694,Yes
9,Haninge 4,Digital,	434.63750,	432.63750,,0,2,None,Default,None,Text,Text,,,,Master,No,No,No,120,Off,No,No,None,59.17,18.1694,Yes
10,Haninge 5,Digital,	434.56250,	432.56250,,0,2,None,Default,None,Text,Text,,,,Master,No,No,No,120,Off,No,No,None,59.1704,18.1663,Yes
11,Huddinge,Analogue,	434.60000,	432.60000,12.5,,,,,,,,123.0,123.0,Disabled,Master,No,No,No,120,Off,No,No,None,59.2134,17.9423,Yes
12,Hogdalen,Digital,	145.57500,	144.97500,,0,2,None,Default,None,Text,Text,,,,Master,No,No,No,120,Off,No,No,None,59.249,18.0719,Yes
13,Ingaro 2 E,Analogue,	145.77500,	145.17500,12.5,,,,,,,,77.0,77.0,Disabled,Master,No,No,No,120,Off,No,No,None,59.2602,18.5297,Yes
14,Johanneshov,Digital,	434.92500,	432.92500,,0,2,None,Default,None,Text,Text,,,,Master,No,No,No,120,Off,No,No,None,59.2942,18.073,Yes
15,Kista 2,Analogue,	145.67500,	145.07500,12.5,,,,,,,,77.0,77.0,Disabled,Master,No,No,No,120,Off,No,No,None,59.4,17.95,Yes
16,Kista 3 S,Analogue,	434.62500,	432.62500,12.5,,,,,,,,77.0,77.0,Disabled,Master,No,No,No,120,Off,No,No,None,59.4,17.95,Yes
17,Kista 5,Digital,	434.95000,	432.95000,,0,2,None,Default,None,Text,Text,,,,Master,No,No,No,120,Off,No,No,None,59.4,17.95,Yes
18,Kista 6,Digital,	434.98750,	432.98750,,0,2,None,Default,None,Text,Text,,,,Master,No,No,No,120,Off,No,No,None,59.4,17.95,Yes
19,Kista 7 S,Analogue,	145.78750,	145.18750,12.5,,,,,,,,77.0,77.0,Disabled,Master,No,No,No,120,Off,No,No,None,59.4,17.95,Yes
20,Kopparmora L,Analogue,	434.48750,	434.48750,12.5,,,,,,,,91.5,91.5,Disabled,Master,No,No,No,120,Off,No,No,None,59.3388,18.5937,Yes
21,Norrtalje,Digital,	434.81250,	432.81250,,0,2,None,Default,None,Text,Text,,,,Master,No,No,No,120,Off,No,No,None,59.7642,18.712,Yes
22,Nynashamn 1,Analogue,	145.71250,	145.11250,12.5,,,,,,,,123.0,123.0,Disabled,Master,No,No,No,120,Off,No,No,None,58.9055,17.9402,Yes
23,Nynashamn 2,Digital,	434.61250,	432.61250,,0,2,None,Default,None,Text,Text,,,,Master,No,No,No,120,Off,No,No,None,58.909,17.946,Yes
24,Nynashamn 3,Analogue,	434.65000,	432.65000,12.5,,,,,,,,123.0,123.0,Disabled,Master,No,No,No,120,Off,No,No,None,59.2134,17.9423,Yes
25,Nynashamn 4,Analogue,	434.71250,	432.71250,12.5,,,,,,,,123.0,123.0,Disabled,Master,No,No,No,120,Off,No,No,None,58.9055,17.9402,Yes
26,Nynashamn 6,Analogue,	434.91250,	432.91250,12.5,,,,,,,,123.0,123.0,Disabled,Master,No,No,No,120,Off,No,No,None,58.8278,17.8498,Yes
27,Sandhamn L,Analogue,	434.37500,	434.37500,12.5,,,,,,,,91.5,91.5,Disabled,Master,No,No,No,120,Off,No,No,None,59.2873,18.9122,Yes
28,Sigtuna,Digital,	434.88750,	432.88750,,0,2,None,Default,None,Text,Text,,,,Master,No,No,No,120,Off,No,No,None,59.6368,17.8088,Yes
29,Solna 1,Analogue,	145.76250,	145.16250,12.5,,,,,,,,123.0,123.0,Disabled,Master,No,No,No,120,Off,No,No,None,59.354,17.97,Yes
30,Solna 2,Analogue,	434.85000,	432.85000,12.5,,,,,,,,123.0,123.0,Disabled,Master,No,No,No,120,Off,No,No,None,59.354,17.97,Yes
31,Stockholm 1,Analogue,	145.62500,	145.02500,12.5,,,,,,,,77.0,77.0,Disabled,Master,No,No,No,120,Off,No,No,None,59.2507,17.879,Yes
32,Stockholm 2 S,Analogue,	145.72500,	145.12500,12.5,,,,,,,,77.0,77.0,Disabled,Master,No,No,No,120,Off,No,No,None,59.32,18.07,Yes
33,Stockholm,Digital,	434.96250,	432.96250,,0,2,None,Default,None,Text,Text,,,,Master,No,No,No,120,Off,No,No,None,59.3345,18.0636,Yes
34,Soder,Analogue,	434.72500,	432.72500,12.5,,,,,,,,77.0,77.0,Disabled,Master,No,No,No,120,Off,No,No,None,59.303,18.085,Yes
35,Sodertalje 2,Analogue,	434.82500,	432.82500,12.5,,,,,,,,77.0,77.0,Disabled,Master,No,No,No,120,Off,No,No,None,59.1875,17.625,Yes
36,Sodertalje 3,Digital,	434.78750,	432.78750,,0,2,None,Default,None,Text,Text,,,,Master,No,No,No,120,Off,No,No,None,59.1911,17.6107,Yes
37,Sodertalje 4,Digital,	434.87500,	432.87500,,0,2,None,Default,None,Text,Text,,,,Master,No,No,No,120,Off,No,No,None,59.1903,17.6178,Yes
38,Tyreso +,Digital,	434.51250,	432.51250,,12,2,None,Default,None,Text,Text,,,,Master,No,No,No,120,Off,No,No,None,59.2975,18.173,Yes
39,Taby 2 I,Digital,	434.73750,	432.73750,,0,2,None,Default,None,Text,Text,,,,Master,No,No,No,120,Off,No,No,None,59.445,18.075,Yes
40,Upplands_Vasby 1,Analogue,	434.67500,	432.67500,12.5,,,,,,,,77.0,77.0,Disabled,Master,No,No,No,120,Off,No,No,None,0,0,Yes
41,Upplands_Vasby 2,Digital,	434.76250,	432.76250,,0,2,None,Default,None,Text,Text,,,,Master,No,No,No,120,Off,No,No,None,0,0,Yes
42,Vallentuna 1,Analogue,	434.86250,	432.86250,12.5,,,,,,,,77.0,77.0,Disabled,Master,No,No,No,120,Off,No,No,None,59.521,18.125,Yes
43,Vallentuna 3,Digital,	434.55000,	432.55000,,0,2,None,Default,None,Text,Text,,,,Master,No,No,No,120,Off,No,No,None,59.5833,18.3333,Yes
44,Vallentuna 4,Analogue,	434.70000,	432.70000,12.5,,,,,,,,77.0,77.0,Disabled,Master,No,No,No,120,Off,No,No,None,59.5043,18.1373,Yes
45,Varmdo,Digital,	434.97500,	432.97500,,0,2,None,Default,None,Text,Text,,,,Master,No,No,No,120,Off,No,No,None,59.3134,18.4254,Yes
46,Vastberga 1 S,Analogue,	145.60000,	145.00000,25,,,,,,,,None,None,Disabled,Master,No,No,No,120,Off,No,No,None,59.298,17.99,Yes
47,Vastberga 2,Analogue,	434.90000,	432.90000,12.5,,,,,,,,123.0,123.0,Disabled,Master,No,No,No,120,Off,No,No,None,59.298,17.99,Yes
48,Almsta 1,Digital,	145.73750,	145.13750,,0,2,None,Default,None,Text,Text,,,,Master,No,No,No,120,Off,No,No,None,59.9733,18.8097,Yes
49,Almsta 2,Digital,	434.60000,	432.60000,,0,2,None,Default,None,Text,Text,,,,Master,No,No,No,120,Off,No,No,None,59.9733,18.8097,Yes
50,Endre,Analogue,	145.77500,	145.17500,12.5,,,,,,,,218.1,218.1,Disabled,Master,No,No,No,120,Off,No,No,None,57.6085,18.4743,Yes
51,Slite,Analogue,	434.60000,	432.60000,12.5,,,,,,,,218.1,218.1,Disabled,Master,No,No,No,120,Off,No,No,None,57.7186,18.7851,Yes
52,Arjeplog,Analogue,	145.70000,	145.10000,12.5,,,,,,,,None,None,Disabled,Master,No,No,No,120,Off,No,No,None,66.11,17.9312,Yes
53,Boden 1,Analogue,	145.62500,	145.02500,12.5,,,,,,,,107.2,107.2,Disabled,Master,No,No,No,120,Off,No,No,None,65.7869,21.526,Yes
54,Boden 2,Digital,	434.80000,	432.80000,,2,2,None,Default,None,Text,Text,,,,Master,No,No,No,120,Off,No,No,None,65.8204,21.6003,Yes
55,Burtrask S,Analogue,	434.95000,	432.95000,12.5,,,,,,,,107.2,107.2,Disabled,Master,No,No,No,120,Off,No,No,None,64.5241,20.6118,Yes
56,Kalix 1,Digital,	145.72500,	145.12500,,2,2,None,Default,None,Text,Text,,,,Master,No,No,No,120,Off,No,No,None,65.92,22.833,Yes
57,Kalix 2,Digital,	434.72500,	432.72500,,2,2,None,Default,None,Text,Text,,,,Master,No,No,No,120,Off,No,No,None,0,0,Yes
58,Kalix 3,Digital,	434.75000,	432.75000,,2,2,None,Default,None,Text,Text,,,,Master,No,No,No,120,Off,No,No,None,65.92,22.833,Yes
59,Kalix 4,Digital,	434.98750,	432.98750,,2,2,None,Default,None,Text,Text,,,,Master,No,No,No,120,Off,No,No,None,65.8496,23.176,Yes
60,Kalix-Vattentorn,Digital,	434.72500,	432.72500,,2,2,None,Default,None,Text,Text,,,,Master,No,No,No,120,Off,No,No,None,65.8596,23.1535,Yes
61,Kiruna 1,Analogue,	145.62500,	145.02500,12.5,,,,,,,,107.2,107.2,Disabled,Master,No,No,No,120,Off,No,No,None,67.8314,20.1876,Yes
62,Kiruna 2,Digital,	434.51250,	432.51250,,2,2,None,Default,None,Text,Text,,,,Master,No,No,No,120,Off,No,No,None,67.8314,20.1876,Yes
63,Kiruna 3,Analogue,	434.82500,	432.82500,12.5,,,,,,,,107.2,107.2,Disabled,Master,No,No,No,120,Off,No,No,None,67.8314,20.1876,Yes
64,Kiruna 4 LS,Analogue,	434.40000,	434.40000,12.5,,,,,,,,None,None,Disabled,Master,No,No,No,120,Off,No,No,None,67.838,20.293,Yes
65,Lulea 1,Analogue,	145.65000,	145.05000,12.5,,,,,,,,107.2,107.2,Disabled,Master,No,No,No,120,Off,No,No,None,65.6141,22.2024,Yes
66,Lulea 2,Digital,	434.90000,	432.90000,,2,2,None,Default,None,Text,Text,,,,Master,No,No,No,120,Off,No,No,None,65.6141,22.2024,Yes
67,Pitea 1,Analogue,	145.60000,	145.00000,12.5,,,,,,,,107.2,107.2,Disabled,Master,No,No,No,120,Off,No,No,None,65.3095,21.3272,Yes
68,Pitea 2,Analogue,	434.60000,	432.60000,12.5,,,,,,,,107.2,107.2,Disabled,Master,No,No,No,120,Off,No,No,None,65.3125,21.4959,Yes
69,Pitea 3,Digital,	434.85000,	432.85000,,2,2,None,Default,None,Text,Text,,,,Master,No,No,No,120,Off,No,No,None,65.3116,21.2746,Yes
70,Seskaro,Digital,	145.67500,	145.07500,,2,2,None,Default,None,Text,Text,,,,Master,No,No,No,120,Off,No,No,None,65.7318,23.7242,Yes
71,Skelleftea 1,Analogue,	145.70000,	145.10000,12.5,,,,,,,,None,None,Disabled,Master,No,No,No,120,Off,No,No,None,64.774,20.95,Yes
72,Skelleftea 2,Digital,	145.58750,	144.98750,,0,2,None,Default,None,Text,Text,,,,Master,No,No,No,120,Off,No,No,None,64.7788,20.9541,Yes
73,Skelleftea 3 S,Analogue,	434.67500,	432.67500,12.5,,,,,,,,107.2,107.2,Disabled,Master,No,No,No,120,Off,No,No,None,64.7672,20.9771,Yes
74,Sorsele,Analogue,	145.60000,	145.00000,12.5,,,,,,,,None,None,Disabled,Master,No,No,No,120,Off,No,No,None,65.5326,17.5396,Yes
75,Storuman 1,Analogue,	145.72500,	145.12500,12.5,,,,,,,,None,None,Disabled,Master,No,No,No,120,Off,No,No,None,65.097,17.14,Yes
76,Storuman 2 S,Analogue,	434.75000,	432.75000,12.5,,,,,,,,107.2,107.2,Disabled,Master,No,No,No,120,Off,No,No,None,65.097,17.14,Yes
77,Umea,Analogue,	145.65000,	145.05000,12.5,,,,,,,,None,None,Disabled,Master,No,No,No,120,Off,No,No,None,63.8412,20.2099,Yes
78,Vindeln,Analogue,	145.62500,	145.02500,12.5,,,,,,,,None,None,Disabled,Master,No,No,No,120,Off,No,No,None,64.6458,20.2917,Yes
79,Vannas 1,Analogue,	145.72500,	145.12500,12.5,,,,,,,,None,None,Disabled,Master,No,No,No,120,Off,No,No,None,63.9,19.81,Yes
80,Vannas 2 SE,Analogue,	434.72500,	432.72500,12.5,,,,,,,,107.2,107.2,Disabled,Master,No,No,No,120,Off,No,No,None,63.9,19.81,Yes
81,Vannas 3,Digital,	434.97500,	432.97500,,2,2,None,Default,None,Text,Text,,,,Master,No,No,No,120,Off,No,No,None,63.975,19.964,Yes
82,Alvsbyn S,Analogue,	145.67500,	145.07500,12.5,,,,,,,,107.2,107.2,Disabled,Master,No,No,No,120,Off,No,No,None,65.6771,20.9928,Yes
83,Bollnas 2,Analogue,	145.65000,	145.05000,12.5,,,,,,,,127.3,127.3,Disabled,Master,No,No,No,120,Off,No,No,None,61.485,16.21,Yes
84,Borgsjo S,Analogue,	145.70000,	145.10000,12.5,,,,,,,,None,None,Disabled,Master,No,No,No,120,Off,No,No,None,62.546,15.9105,Yes
85,Forsa 2 S,Analogue,	145.67500,	145.07500,12.5,,,,,,,,127.3,127.3,Disabled,Master,No,No,No,120,Off,No,No,None,61.688,16.875,Yes
86,Forsa 3,Analogue,	434.67500,	432.67500,12.5,,,,,,,,127.3,127.3,Disabled,Master,No,No,No,120,Off,No,No,None,61.688,16.875,Yes
87,Forsa 4,Analogue,	145.60000,	145.00000,12.5,,,,,,,,127.3,127.3,Disabled,Master,No,No,No,120,Off,No,No,None,61.6666,16.8333,Yes
88,Follinge,Digital,	434.52500,	432.52500,,3,2,None,Default,None,Text,Text,,,,Master,No,No,No,120,Off,No,No,None,63.67,14.607,Yes
89,Gavle 1,Digital,	434.70000,	432.70000,,3,2,None,Default,None,Text,Text,,,,Master,No,No,No,120,Off,No,No,None,60.6402,17.1335,Yes
90,Gavle 2 S,Analogue,	434.87500,	432.87500,12.5,,,,,,,,127.3,127.3,Disabled,Master,No,No,No,120,Off,No,No,None,60.6422,17.1302,Yes
91,Hoting,Analogue,	145.60000,	145.00000,12.5,,,,,,,,None,None,Disabled,Master,No,No,No,120,Off,No,No,None,64.235,15.9302,Yes
92,Hudiksvall 1,Digital,	145.71250,	145.11250,,3,2,None,Default,None,Text,Text,,,,Master,No,No,No,120,Off,No,No,None,61.723,17.1,Yes
93,Hudiksvall 2,Digital,	434.57500,	432.57500,,3,2,None,Default,None,Text,Text,,,,Master,No,No,No,120,Off,No,No,None,61.723,17.1,Yes
94,Harnosand,Analogue,	434.72500,	432.72500,12.5,,,,,,,,None,None,Disabled,Master,No,No,No,120,Off,No,No,None,62.6431,17.9583,Yes
95,Kramfors,Analogue,	434.60000,	432.60000,12.5,,,,,,,,None,None,Disabled,Master,No,No,No,120,Off,No,No,None,62.9275,17.7652,Yes
96,Krokom L,Analogue,	434.97500,	434.97500,12.5,,,,,,,,127.3,127.3,Disabled,Master,No,No,No,120,Off,No,No,None,63.3649,14.5147,Yes
97,Nordingra 1,Analogue,	145.62500,	145.02500,12.5,,,,,,,,None,None,Disabled,Master,No,No,No,120,Off,No,No,None,62.9375,18.4583,Yes
98,Nordingra 2,Analogue,	434.85000,	432.85000,12.5,,,,,,,,None,None,Disabled,Master,No,No,No,120,Off,No,No,None,62.9375,18.4583,Yes
99,Nyland 1,Analogue,	145.75000,	145.15000,12.5,,,,,,,,None,None,Disabled,Master,No,No,No,120,Off,No,No,None,63.01,17.74,Yes
100,Nyland 2,Analogue,	434.95000,	433.35000,12.5,,,,,,,,None,None,Disabled,Master,No,No,No,120,Off,No,No,None,63.01,17.74,Yes
101,Sandviken 1 S,Analogue,	145.70000,	145.10000,12.5,,,,,,,,127.3,127.3,Disabled,Master,No,No,No,120,Off,No,No,None,60.75,16.49,Yes
102,Sandviken 3 S,Analogue,	434.82500,	432.82500,12.5,,,,,,,,127.3,127.3,Disabled,Master,No,No,No,120,Off,No,No,None,60.75,16.49,Yes
103,Solleftea 1,Analogue,	145.65000,	145.05000,12.5,,,,,,,,None,None,Disabled,Master,No,No,No,120,Off,No,No,None,63.1654,17.2771,Yes
104,Solleftea 2,Analogue,	434.92500,	432.92500,12.5,,,,,,,,127.3,127.3,Disabled,Master,No,No,No,120,Off,No,No,None,63.1828,17.2718,Yes
105,Sundsvall 1 SE,Analogue,	145.72500,	145.12500,12.5,,,,,,,,127.3,127.3,Disabled,Master,No,No,No,120,Off,No,No,None,62.3958,17.4583,Yes
106,Sundsvall 3,Digital,	434.80000,	432.80000,,1,2,None,Default,None,Text,Text,,,,Master,No,No,No,120,Off,No,No,None,62.3785,17.202,Yes
107,Sundsvall 4,Digital,	434.98750,	432.98750,,3,2,None,Default,None,Text,Text,,,,Master,No,No,No,120,Off,No,No,None,62.3003,17.3635,Yes
108,Soderhamn 2,Analogue,	145.75000,	145.15000,12.5,,,,,,,,None,None,Disabled,Master,No,No,No,120,Off,No,No,None,61.2969,17.0864,Yes
109,Soderhamn 4,Analogue,	434.75000,	433.15000,12.5,,,,,,,,None,None,Disabled,Master,No,No,No,120,Off,No,No,None,61.2969,17.0864,Yes
110,Arsunda,Analogue,	434.65000,	436.25000,12.5,,,,,,,,88.5,88.5,Disabled,Master,No,No,No,120,Off,No,No,None,60.5164,16.7344,Yes
111,Ornskoldsvik 1,Digital,	145.57500,	144.97500,,3,2,None,Default,None,Text,Text,,,,Master,No,No,No,120,Off,No,No,None,63.2963,18.7318,Yes
112,Ornskoldsvik 2,Analogue,	145.77500,	145.17500,12.5,,,,,,,,None,None,Disabled,Master,No,No,No,120,Off,No,No,None,63.383,18.5564,Yes
113,Ornskoldsvik 3 S,Analogue,	434.87500,	432.87500,12.5,,,,,,,,127.3,127.3,Disabled,Master,No,No,No,120,Off,No,No,None,63.2963,18.7318,Yes
114,Osterfarnebo 2 S,Analogue,	434.85000,	432.85000,12.5,,,,,,,,127.3,127.3,Disabled,Master,No,No,No,120,Off,No,No,None,60.2916,16.75,Yes
115,Ostersund 1,Analogue,	145.75000,	145.15000,12.5,,,,,,,,127.3,127.3,Disabled,Master,No,No,No,120,Off,No,No,None,63.1898,14.7668,Yes
116,Ostersund 2 S,Analogue,	145.78750,	145.18750,12.5,,,,,,,,127.3,127.3,Disabled,Master,No,No,No,120,Off,No,No,None,63.1047,14.6022,Yes
117,Ostersund 3,Digital,	434.56250,	432.56250,,3,2,None,Default,None,Text,Text,,,,Master,No,No,No,120,Off,No,No,None,63.1047,14.6022,Yes
118,Ostersund 4 E,Analogue,	434.75000,	432.75000,12.5,,,,,,,,127.3,127.3,Disabled,Master,No,No,No,120,Off,No,No,None,63.1898,14.7668,Yes
119,Arvika 1,Analogue,	434.77500,	432.77500,12.5,,,,,,,,74.4,74.4,Disabled,Master,No,No,No,120,Off,No,No,None,59.7736,12.2336,Yes
120,Arvika 2,Digital,	434.97500,	432.97500,,4,2,None,Default,None,Text,Text,,,,Master,No,No,No,120,Off,No,No,None,59.5793,12.5401,Yes
121,Borlange 1,Analogue,	434.80000,	432.80000,12.5,,,,,,,,85.4,85.4,Disabled,Master,No,No,No,120,Off,No,No,None,60.4014,15.465,Yes
122,Borlange 2,Digital,	434.85000,	432.85000,,12,2,None,Default,None,Text,Text,,,,Master,No,No,No,120,Off,No,No,None,60.4014,15.465,Yes
123,Eksharad HI,Digital,	433.20000,	433.20000,,0,2,None,Default,None,Text,Text,,,,Master,No,No,No,120,Off,No,No,None,60.1769,13.4925,Yes
124,Falun 1 SE,Analogue,	145.62500,	145.02500,12.5,,,,,,,,85.4,85.4,Disabled,Master,No,No,No,120,Off,No,No,None,60.6295,15.677,Yes
125,Falun 2,Digital,	434.62500,	432.62500,,1,2,None,Default,None,Text,Text,,,,Master,No,No,No,120,Off,No,No,None,60.6295,15.677,Yes
126,Filipstad 1 L,Analogue,	145.20000,	145.20000,12.5,,,,,,,,None,None,Disabled,Master,No,No,No,120,Off,No,No,None,59.7142,14.1696,Yes
127,Garphyttan,Analogue,	145.65000,	145.05000,12.5,,,,,,,,74.4,74.4,Disabled,Master,No,No,No,120,Off,No,No,None,59.3316,14.9309,Yes
128,Grums,Analogue,	434.72500,	432.72500,12.5,,,,,,,,74.4,74.4,Disabled,Master,No,No,No,120,Off,No,No,None,59.3493,13.0895,Yes
129,Grangesberg L,Analogue,	145.35000,	145.35000,12.5,,,,,,,,None,None,Disabled,Master,No,No,No,120,Off,No,No,None,60.0715,15.0157,Yes
130,Hagfors 2 E,Analogue,	145.67500,	145.07500,12.5,,,,,,,,114.8,114.8,Disabled,Master,No,No,No,120,Off,No,No,None,60.0225,13.7602,Yes
131,Karlskoga 1,Digital,	145.75000,	145.15000,,4,2,None,Default,None,Text,Text,,,,Master,No,No,No,120,Off,No,No,None,59.378,14.435,Yes
132,Karlskoga 2,Digital,	434.80000,	432.80000,,4,2,None,Default,None,Text,Text,,,,Master,No,No,No,120,Off,No,No,None,59.3175,14.4812,Yes
133,Karlstad S,Analogue,	145.57500,	144.97500,12.5,,,,,,,,None,None,Disabled,Master,No,No,No,120,Off,No,No,None,59.4251,13.4838,Yes
134,Kopparberg 1,Analogue,	145.60000,	145.00000,12.5,,,,,,,,None,None,Disabled,Master,No,No,No,120,Off,No,No,None,59.9223,15.0425,Yes
135,Leksand 2 I,Analogue,	145.77500,	145.17500,12.5,,,,,,,,85.4,85.4,Disabled,Master,No,No,No,120,Off,No,No,None,60.674,15.0175,Yes
136,Leksand 3,Digital,	434.61250,	432.61250,,0,2,None,Default,None,Text,Text,,,,Master,No,No,No,120,Off,No,No,None,60.7488,15.0725,Yes
137,Lindesberg 1,Analogue,	145.68750,	145.08750,12.5,,,,,,,,74.4,74.4,Disabled,Master,No,No,No,120,Off,No,No,None,59.651,15.133,Yes
138,Lindesberg 2 LS,Analogue,	145.30000,	145.30000,12.5,,,,,,,,136.5,136.5,Disabled,Master,No,No,No,120,Off,No,No,None,59.5967,15.2066,Yes
139,Ludvika 1,Analogue,	145.72500,	145.12500,12.5,,,,,,,,None,None,Disabled,Master,No,No,No,120,Off,No,No,None,60.1025,15.13,Yes
140,Ludvika 2,Analogue,	434.72500,	433.12500,12.5,,,,,,,,None,None,Disabled,Master,No,No,No,120,Off,No,No,None,60.1025,15.13,Yes
141,Malung H,Digital,	144.83750,	144.83750,,4,2,None,Default,None,Text,Text,,,,Master,No,No,No,120,Off,No,No,None,60.6852,13.7168,Yes
142,Mora 3,Analogue,	434.70000,	432.70000,12.5,,,,,,,,None,None,Disabled,Master,No,No,No,120,Off,No,No,None,61.0066,14.5028,Yes
143,Nusnas,Digital,	434.92500,	432.92500,,4,2,None,Default,None,Text,Text,,,,Master,No,No,No,120,Off,No,No,None,60.9532,14.6304,Yes
144,Nybble LS,Analogue,	145.30000,	145.30000,12.5,,,,,,,,None,None,Disabled,Master,No,No,No,120,Off,No,No,None,59.1111,14.1663,Yes
145,Nyhammar L,Analogue,	145.32500,	145.32500,12.5,,,,,,,,None,None,Disabled,Master,No,No,No,120,Off,No,No,None,60.278,14.9803,Yes
146,Orsa 1 E,Analogue,	145.75000,	145.15000,12.5,,,,,,,,85.4,85.4,Disabled,Master,No,No,No,120,Off,No,No,None,61.2168,14.5388,Yes
147,Orsa 2 S,Analogue,	434.75000,	432.75000,12.5,,,,,,,,85.4,85.4,Disabled,Master,No,No,No,120,Off,No,No,None,61.2168,14.5388,Yes
148,Orsa 3 LS,Analogue,	145.27500,	145.27500,12.5,,,,,,,,None,None,Disabled,Master,No,No,No,120,Off,No,No,None,61.1108,14.6382,Yes
149,Smedjebacken,Digital,	434.63750,	432.63750,,4,2,None,Default,None,Text,Text,,,,Master,No,No,No,120,Off,No,No,None,60.1596,15.3995,Yes
150,Sunne 1,Analogue,	145.77500,	145.17500,12.5,,,,,,,,74.4,74.4,Disabled,Master,No,No,No,120,Off,No,No,None,59.8367,12.8657,Yes
151,Sunne 2 HI,Digital,	432.50000,	432.50000,,1,2,None,Default,None,Text,Text,,,,Master,No,No,No,120,Off,No,No,None,59.8459,13.1337,Yes
152,Salen S,Analogue,	145.60000,	145.00000,12.5,,,,,,,,85.4,85.4,Disabled,Master,No,No,No,120,Off,No,No,None,61.1532,13.1711,Yes
153,Torsby 1 L,Analogue,	145.28750,	145.28750,12.5,,,,,,,,74.4,74.4,Disabled,Master,No,No,No,120,Off,No,No,None,60.2948,13.9657,Yes
154,Torsby 2,Analogue,	434.62500,	432.62500,12.5,,,,,,,,None,None,Disabled,Master,No,No,No,120,Off,No,No,None,60.1057,12.9649,Yes
155,Vansbro 1,Analogue,	145.65000,	145.05000,12.5,,,,,,,,85.4,85.4,Disabled,Master,No,No,No,120,Off,No,No,None,60.505,14.0315,Yes
156,Vansbro 3,Digital,	434.66250,	432.66250,,4,2,None,Default,None,Text,Text,,,,Master,No,No,No,120,Off,No,No,None,60.505,14.0315,Yes
157,Arjang,Analogue,	145.72500,	145.12500,12.5,,,,,,,,None,None,Disabled,Master,No,No,No,120,Off,No,No,None,59.4045,12.1179,Yes
158,Alvdalen 1 LS,Analogue,	434.50000,	434.50000,12.5,,,,,,,,250.3,250.3,Disabled,Master,No,No,No,120,Off,No,No,None,61.2375,14.0451,Yes
159,Orebro 1,Analogue,	145.71250,	145.11250,12.5,,,,,,,,None,None,Disabled,Master,No,No,No,120,Off,No,No,None,59.2448,14.9124,Yes
160,Orebro 2,Digital,	434.72500,	432.72500,,4,2,None,Default,None,Text,Text,,,,Master,No,No,No,120,Off,No,No,None,59.2552,15.1857,Yes
161,Arboga 1,Analogue,	145.67500,	145.07500,12.5,,,,,,,,None,None,Disabled,Master,No,No,No,120,Off,No,No,None,59.6076,15.836,Yes
162,Arboga 2,Analogue,	434.87500,	432.87500,12.5,,,,,,,,None,None,Disabled,Master,No,No,No,120,Off,No,No,None,59.6076,15.836,Yes
163,Eskilstuna 2 SE,Analogue,	145.61250,	145.01250,12.5,,,,,,,,82.5,82.5,Disabled,Master,No,No,No,120,Off,No,No,None,59.229,16.625,Yes
164,Eskilstuna 3 S,Analogue,	434.85000,	432.85000,12.5,,,,,,,,82.5,82.5,Disabled,Master,No,No,No,120,Off,No,No,None,59.3934,16.4216,Yes
165,Eskilstuna 4,Analogue,	434.97500,	432.97500,12.5,,,,,,,,82.5,82.5,Disabled,Master,No,No,No,120,Off,No,No,None,59.3561,16.5001,Yes
166,Finspang 1,Analogue,	434.92500,	432.92500,12.5,,,,,,,,107.2,107.2,Disabled,Master,No,No,No,120,Off,No,No,None,58.7292,15.7917,Yes
167,Finspang 3,Digital,	434.70000,	432.70000,,0,2,None,Default,None,Text,Text,,,,Master,No,No,No,120,Off,No,No,None,58.7053,15.7592,Yes
168,Flen 1,Digital,	145.63750,	145.03750,,5,2,None,Default,None,Text,Text,,,,Master,No,No,No,120,Off,No,No,None,59.0448,16.6282,Yes
169,Flen 2,Analogue,	145.76250,	145.16250,12.5,,,,,,,,103.5,103.5,Disabled,Master,No,No,No,120,Off,No,No,None,59.046,16.625,Yes
170,Flen 3 S,Analogue,	434.75000,	432.75000,12.5,,,,,,,,91.5,91.5,Disabled,Master,No,No,No,120,Off,No,No,None,59.0454,16.6296,Yes
171,Kisa,Analogue,	145.70000,	145.10000,12.5,,,,,,,,82.5,82.5,Disabled,Master,No,No,No,120,Off,No,No,None,57.987,15.6312,Yes
172,Knivsta,Digital,	434.52500,	432.52500,,5,2,None,Default,None,Text,Text,,,,Master,No,No,No,120,Off,No,No,None,59.7255,17.7868,Yes
173,Linkoping 1,Analogue,	145.62500,	145.02500,12.5,,,,,,,,82.5,82.5,Disabled,Master,No,No,No,120,Off,No,No,None,58.56,15.542,Yes
174,Linkoping 2,Analogue,	145.72500,	145.12500,12.5,,,,,,,,None,None,Disabled,Master,No,No,No,120,Off,No,No,None,58.3837,15.5645,Yes
175,Linkoping 3 S,Analogue,	145.78750,	145.18750,12.5,,,,,,,,82.5,82.5,Disabled,Master,No,No,No,120,Off,No,No,None,58.56,15.542,Yes
176,Linkoping 4,Digital,	434.51250,	432.51250,,5,2,None,Default,None,Text,Text,,,,Master,No,No,No,120,Off,No,No,None,58.56,15.542,Yes
177,Linkoping 5,Analogue,	434.80000,	432.80000,12.5,,,,,,,,None,None,Disabled,Master,No,No,No,120,Off,No,No,None,58.5224,15.5237,Yes
178,Linkoping 6,Analogue,	434.82500,	432.82500,12.5,,,,,,,,82.5,82.5,Disabled,Master,No,No,No,120,Off,No,No,None,58.3995,15.6381,Yes
179,Linkoping 7,Digital,	434.87500,	432.87500,,5,2,None,Default,None,Text,Text,,,,Master,No,No,No,120,Off,No,No,None,58.5643,15.5266,Yes
180,Motala,Analogue,	145.73750,	145.13750,12.5,,,,,,,,91.5,91.5,Disabled,Master,No,No,No,120,Off,No,No,None,58.5222,15.1309,Yes
181,Norrkoping 1 LSE,Analogue,	145.23750,	145.23750,12.5,,,,,,,,None,None,Disabled,Master,No,No,No,120,Off,No,No,None,58.5874,16.2011,Yes
182,Norrkoping 2,Analogue,	145.60000,	145.00000,12.5,,,,,,,,None,None,Disabled,Master,No,No,No,120,Off,No,No,None,58.6875,16.43,Yes
183,Norrkoping 3 S,Analogue,	434.60000,	432.60000,12.5,,,,,,,,82.5,82.5,Disabled,Master,No,No,No,120,Off,No,No,None,58.6042,16.125,Yes
184,Norrkoping 4,Digital,	434.95000,	432.95000,,5,2,None,Default,None,Text,Text,,,,Master,No,No,No,120,Off,No,No,None,58.6875,16.2917,Yes
185,Norrkoping 5,Analogue,	434.66250,	432.66250,12.5,,,,,,,,None,None,Disabled,Master,No,No,No,120,Off,No,No,None,58.6053,16.1426,Yes
186,Nykoping 2,Digital,	434.63750,	432.63750,,5,2,None,Default,None,Text,Text,,,,Master,No,No,No,120,Off,No,No,None,58.7663,17.0204,Yes
187,Sala 1 E,Analogue,	145.71250,	145.11250,12.5,,,,,,,,82.5,82.5,Disabled,Master,No,No,No,120,Off,No,No,None,59.938,16.625,Yes
188,Stigtomta LF,Digital,	145.28750,	145.28750,,5,2,None,Default,None,Text,Text,,,,Master,No,No,No,120,Off,No,No,None,58.8191,16.7939,Yes
189,Trosa,Analogue,	434.88750,	432.88750,12.5,,,,,,,,82.5,82.5,Disabled,Master,No,No,No,120,Off,No,No,None,58.896,17.625,Yes
190,Uppsala 1 S,Analogue,	145.58750,	144.98750,12.5,,,,,,,,136.5,136.5,Disabled,Master,No,No,No,120,Off,No,No,None,59.8507,17.6345,Yes
191,Uppsala 2,Analogue,	145.75000,	145.15000,12.5,,,,,,,,82.5,82.5,Disabled,Master,No,No,No,120,Off,No,No,None,59.8542,17.7927,Yes
192,Uppsala 3 H,Digital,	434.37500,	434.37500,,5,2,None,Default,None,Text,Text,,,,Master,No,No,No,120,Off,No,No,None,59.9511,17.82,Yes
193,Uppsala 4,Digital,	434.51250,	432.51250,,1,2,None,Default,None,Text,Text,,,,Master,No,No,No,120,Off,No,No,None,59.9774,17.594,Yes
194,Uppsala 5,Digital,	434.58750,	432.58750,,5,2,None,Default,None,Text,Text,,,,Master,No,No,No,120,Off,No,No,None,59.8507,17.6345,Yes
195,Uppsala 6,Digital,	434.63750,	432.63750,,5,2,None,Default,None,Text,Text,,,,Master,No,No,No,120,Off,No,No,None,59.9512,17.82,Yes
196,Uppsala 8 LS,Analogue,	144.57500,	144.57500,12.5,,,,,,,,None,None,Disabled,Master,No,No,No,120,Off,No,No,None,59.9774,17.594,Yes
197,Uppsala 9 LS,Analogue,	433.45000,	433.45000,12.5,,,,,,,,None,None,Disabled,Master,No,No,No,120,Off,No,No,None,59.9774,17.594,Yes
198,Vasteras 1 S,Analogue,	145.77500,	145.17500,12.5,,,,,,,,82.5,82.5,Disabled,Master,No,No,No,120,Off,No,No,None,59.6181,16.5243,Yes
199,Vasteras 3 S,Analogue,	434.77500,	432.77500,12.5,,,,,,,,82.5,82.5,Disabled,Master,No,No,No,120,Off,No,No,None,59.6062,16.5576,Yes
200,Atvidaberg SE,Analogue,	145.66250,	145.06250,12.5,,,,,,,,82.5,82.5,Disabled,Master,No,No,No,120,Off,No,No,None,58.2072,15.878,Yes
201,Alingsas 2,Analogue,	145.62500,	145.02500,12.5,,,,,,,,114.8,114.8,Disabled,Master,No,No,No,120,Off,No,No,None,57.93,12.5362,Yes
202,Alingsas 3,Digital,	434.53750,	432.53750,,6,2,None,Default,None,Text,Text,,,,Master,No,No,No,120,Off,No,No,None,57.9151,12.5195,Yes
203,Alingsas 4 S,Analogue,	434.62500,	432.62500,12.5,,,,,,,,114.8,114.8,Disabled,Master,No,No,No,120,Off,No,No,None,57.93,12.5362,Yes
204,Angered,Analogue,	434.92500,	432.92500,12.5,,,,,,,,None,None,Disabled,Master,No,No,No,120,Off,No,No,None,57.8125,12.0417,Yes
205,Bengtsfors 1,Digital,	145.70000,	145.10000,,6,2,None,Default,None,Text,Text,,,,Master,No,No,No,120,Off,No,No,None,59.0053,12.2525,Yes
206,Bengtsfors 2,Digital,	434.68750,	432.68750,,6,2,None,Default,None,Text,Text,,,,Master,No,No,No,120,Off,No,No,None,59.0053,12.2525,Yes
207,Bokenas S,Analogue,	145.60000,	145.00000,12.5,,,,,,,,118.8,118.8,Disabled,Master,No,No,No,120,Off,No,No,None,58.31,11.64,Yes
208,Boras 1 LE,Analogue,	144.51250,	144.51250,12.5,,,,,,,,146.2,146.2,Disabled,Master,No,No,No,120,Off,No,No,None,57.729,13.05,Yes
209,Boras 2,Analogue,	145.77500,	145.17500,12.5,,,,,,,,114.8,114.8,Disabled,Master,No,No,No,120,Off,No,No,None,57.742,13.005,Yes
210,Boras 3,Digital,	434.55000,	432.55000,,6,2,None,Default,None,Text,Text,,,,Master,No,No,No,120,Off,No,No,None,57.742,13.005,Yes
211,Boras 4,Analogue,	434.80000,	432.80000,12.5,,,,,,,,114.8,114.8,Disabled,Master,No,No,No,120,Off,No,No,None,57.742,13.005,Yes
212,Dingle,Digital,	434.88750,	432.88750,,6,2,None,Default,None,Text,Text,,,,Master,No,No,No,120,Off,No,No,None,58.5208,11.551,Yes
213,Floda 1 LI,Analogue,	433.47500,	433.47500,12.5,,,,,,,,None,None,Disabled,Master,No,No,No,120,Off,No,No,None,57.809,12.3654,Yes
214,Floda 2,Digital,	434.82500,	432.82500,,6,2,None,Default,None,Text,Text,,,,Master,No,No,No,120,Off,No,No,None,57.809,12.3654,Yes
215,Guldheden 1,Analogue,	434.97500,	432.97500,12.5,,,,,,,,114.8,114.8,Disabled,Master,No,No,No,120,Off,No,No,None,57.678,11.9783,Yes
216,Guldheden 2 LE,Analogue,	144.57500,	144.57500,12.5,,,,,,,,146.2,146.2,Disabled,Master,No,No,No,120,Off,No,No,None,57.68,11.97,Yes
217,Guldheden 3,Digital,	434.78750,	432.78750,,6,2,None,Default,None,Text,Text,,,,Master,No,No,No,120,Off,No,No,None,57.6785,11.9787,Yes
218,Guldheden 4 S,Analogue,	434.65000,	432.65000,12.5,,,,,,,,114.8,114.8,Disabled,Master,No,No,No,120,Off,No,No,None,57.6785,11.9787,Yes
219,Guldheden 5 S,Analogue,	145.65000,	145.05000,12.5,,,,,,,,114.8,114.8,Disabled,Master,No,No,No,120,Off,No,No,None,57.6785,11.9787,Yes
220,Guldheden 6 LE,Analogue,	144.67500,	144.67500,12.5,,,,,,,,146.2,146.2,Disabled,Master,No,No,No,120,Off,No,No,None,57.68,11.97,Yes
221,Guldheden 7,Analogue,	434.60000,	432.60000,12.5,,,,,,,,114.8,114.8,Disabled,Master,No,No,No,120,Off,No,No,None,57.6785,11.9787,Yes
222,Halmstad 1 S,Analogue,	145.67500,	145.07500,12.5,,,,,,,,114.8,114.8,Disabled,Master,No,No,No,120,Off,No,No,None,56.7614,13.0505,Yes
223,Halmstad 2,Analogue,	434.75000,	432.75000,12.5,,,,,,,,114.8,114.8,Disabled,Master,No,No,No,120,Off,No,No,None,56.6875,12.875,Yes
224,Halmstad 3,Analogue,	434.92500,	432.92500,12.5,,,,,,,,114.8,114.8,Disabled,Master,No,No,No,120,Off,No,No,None,56.7614,13.0505,Yes
225,Hjo LS,Analogue,	145.23750,	145.23750,12.5,,,,,,,,None,None,Disabled,Master,No,No,No,120,Off,No,No,None,58.25,14.0186,Yes
226,Hono 1 LE,Analogue,	144.62500,	144.62500,12.5,,,,,,,,146.2,146.2,Disabled,Master,No,No,No,120,Off,No,No,None,57.685,11.6456,Yes
227,Karlsborg,Analogue,	145.76250,	145.16250,12.5,,,,,,,,94.8,94.8,Disabled,Master,No,No,No,120,Off,No,No,None,58.5375,14.4434,Yes
228,Kinnekulle 1,Analogue,	145.60000,	145.00000,12.5,,,,,,,,114.8,114.8,Disabled,Master,No,No,No,120,Off,No,No,None,58.6,13.41,Yes
229,Kinnekulle 2,Analogue,	434.95000,	432.95000,12.5,,,,,,,,None,None,Disabled,Master,No,No,No,120,Off,No,No,None,58.6,13.41,Yes
230,Kortedala 1 LE,Analogue,	144.60000,	144.60000,12.5,,,,,,,,146.2,146.2,Disabled,Master,No,No,No,120,Off,No,No,None,57.7613,12.0373,Yes
231,Kortedala 2,Digital,	145.58750,	144.98750,,6,2,None,Default,None,Text,Text,,,,Master,No,No,No,120,Off,No,No,None,57.7613,12.0373,Yes
232,Kungsbacka 1 LE,Analogue,	144.65000,	144.65000,12.5,,,,,,,,146.2,146.2,Disabled,Master,No,No,No,120,Off,No,No,None,57.4874,12.077,Yes
233,Kungsbacka 2,Analogue,	145.72500,	145.12500,12.5,,,,,,,,114.8,114.8,Disabled,Master,No,No,No,120,Off,No,No,None,57.4874,12.077,Yes
234,Kungsbacka 3,Analogue,	434.72500,	432.72500,12.5,,,,,,,,114.8,114.8,Disabled,Master,No,No,No,120,Off,No,No,None,57.4874,12.077,Yes
235,Kungshamn S,Digital,	145.67500,	145.07500,,6,2,None,Default,None,Text,Text,,,,Master,No,No,No,120,Off,No,No,None,58.3569,11.257,Yes
236,Kungalv 1,Analogue,	145.61250,	145.01250,12.5,,,,,,,,114.8,114.8,Disabled,Master,No,No,No,120,Off,No,No,None,57.8564,11.9628,Yes
237,Kungalv 2,Analogue,	434.73750,	432.73750,12.5,,,,,,,,114.8,114.8,Disabled,Master,No,No,No,120,Off,No,No,None,57.9814,12.0462,Yes
238,Kungalv 3,Analogue,	434.90000,	432.90000,12.5,,,,,,,,114.8,114.8,Disabled,Master,No,No,No,120,Off,No,No,None,57.8564,11.9628,Yes
239,Lysekil S,Analogue,	434.80000,	432.80000,12.5,,,,,,,,118.8,118.8,Disabled,Master,No,No,No,120,Off,No,No,None,58.2755,11.4355,Yes
240,Langedrag LE,Analogue,	144.52500,	144.52500,12.5,,,,,,,,146.2,146.2,Disabled,Master,No,No,No,120,Off,No,No,None,57.6694,11.8555,Yes
241,Mariestad E,Analogue,	434.90000,	432.90000,12.5,,,,,,,,None,None,Disabled,Master,No,No,No,120,Off,No,No,None,58.7002,13.8253,Yes
242,Myggenas LE,Analogue,	144.66250,	144.66250,12.5,,,,,,,,146.2,146.2,Disabled,Master,No,No,No,120,Off,No,No,None,58.0564,11.7428,Yes
243,Molndal 1 EI,Analogue,	145.70000,	145.10000,12.5,,,,,,,,118.8,118.8,Disabled,Master,No,No,No,120,Off,No,No,None,57.65,12.0166,Yes
244,Molndal 2 EI,Analogue,	434.70000,	432.70000,12.5,,,,,,,,118.8,118.8,Disabled,Master,No,No,No,120,Off,No,No,None,57.65,12.0166,Yes
245,Molnlycke LE,Analogue,	144.58750,	144.58750,12.5,,,,,,,,146.2,146.2,Disabled,Master,No,No,No,120,Off,No,No,None,57.6493,12.1142,Yes
246,Skara 1,Analogue,	145.72500,	145.12500,12.5,,,,,,,,114.8,114.8,Disabled,Master,No,No,No,120,Off,No,No,None,58.3117,13.446,Yes
247,Skara 2,Analogue,	434.56250,	432.56250,12.5,,,,,,,,None,None,Disabled,Master,No,No,No,120,Off,No,No,None,58.3117,13.446,Yes
248,Skara 3,Digital,	434.98750,	432.98750,,6,2,None,Default,None,Text,Text,,,,Master,No,No,No,120,Off,No,No,None,58.4,13.46,Yes
249,Skene 1 EI,Analogue,	145.60000,	145.00000,12.5,,,,,,,,94.8,94.8,Disabled,Master,No,No,No,120,Off,No,No,None,57.5095,12.6,Yes
250,Skene 2 HI,Digital,	433.56250,	433.56250,,0,2,None,Default,None,Text,Text,,,,Master,No,No,No,120,Off,No,No,None,57.495,12.656,Yes
251,Skene 3 EI,Analogue,	434.95000,	432.95000,12.5,,,,,,,,94.8,94.8,Disabled,Master,No,No,No,120,Off,No,No,None,57.5095,12.6,Yes
252,Skarsjon LE,Analogue,	144.55000,	144.55000,12.5,,,,,,,,146.2,146.2,Disabled,Master,No,No,No,120,Off,No,No,None,57.544,12.079,Yes
253,Skovde 1,Analogue,	145.68750,	145.08750,12.5,,,,,,,,114.8,114.8,Disabled,Master,No,No,No,120,Off,No,No,None,58.4085,13.9304,Yes
254,Skovde 2,Analogue,	434.82500,	432.82500,12.5,,,,,,,,114.8,114.8,Disabled,Master,No,No,No,120,Off,No,No,None,58.4177,13.8154,Yes
255,Stenungsund 2 SE,Digital,	145.71250,	145.11250,,6,2,None,Default,None,Text,Text,,,,Master,No,No,No,120,Off,No,No,None,58.0823,11.9943,Yes
256,Tanumshede S,Digital,	145.57500,	144.97500,,6,2,None,Default,None,Text,Text,,,,Master,No,No,No,120,Off,No,No,None,58.7239,11.3252,Yes
257,Tidaholm,Analogue,	145.63750,	145.03750,12.5,,,,,,,,118.8,118.8,Disabled,Master,No,No,No,120,Off,No,No,None,58.13,14.042,Yes
258,Torup S,Analogue,	434.88750,	432.88750,12.5,,,,,,,,114.8,114.8,Disabled,Master,No,No,No,120,Off,No,No,None,57.0106,12.9843,Yes
259,Trollhattan 1,Digital,	145.76250,	145.16250,,6,2,None,Default,None,Text,Text,,,,Master,No,No,No,120,Off,No,No,None,58.275,12.29,Yes
260,Trollhattan 2,Analogue,	434.72500,	432.72500,12.5,,,,,,,,None,None,Disabled,Master,No,No,No,120,Off,No,No,None,58.21,12.3353,Yes
261,Trollhattan 3,Digital,	434.87500,	432.87500,,6,2,None,Default,None,Text,Text,,,,Master,No,No,No,120,Off,No,No,None,58.275,12.29,Yes
262,Uddevalla 1 S,Digital,	145.73750,	145.13750,,6,2,None,Default,None,Text,Text,,,,Master,No,No,No,120,Off,No,No,None,58.2964,11.8584,Yes
263,Uddevalla 2 S,Analogue,	434.77500,	432.77500,12.5,,,,,,,,118.8,118.8,Disabled,Master,No,No,No,120,Off,No,No,None,58.3435,11.6704,Yes
264,Ulricehamn 1,Analogue,	145.67500,	145.07500,12.5,,,,,,,,118.8,118.8,Disabled,Master,No,No,No,120,Off,No,No,None,57.8054,13.5072,Yes
265,Ulricehamn 2,Analogue,	434.67500,	432.67500,12.5,,,,,,,,118.8,118.8,Disabled,Master,No,No,No,120,Off,No,No,None,57.7923,13.4236,Yes
266,Varberg 1,Analogue,	145.70000,	145.10000,12.5,,,,,,,,None,None,Disabled,Master,No,No,No,120,Off,No,No,None,57.3025,12.382,Yes
267,Varberg 2,Analogue,	434.70000,	432.70000,12.5,,,,,,,,None,None,Disabled,Master,No,No,No,120,Off,No,No,None,57.3025,12.382,Yes
268,Vargarda,Analogue,	434.85000,	432.85000,12.5,,,,,,,,118.8,118.8,Disabled,Master,No,No,No,120,Off,No,No,None,58.0191,12.8303,Yes
269,Amal,Analogue,	434.60000,	432.60000,12.5,,,,,,,,None,None,Disabled,Master,No,No,No,120,Off,No,No,None,59.0498,12.6888,Yes
270,Alvangen,Analogue,	434.75000,	432.75000,12.5,,,,,,,,114.8,114.8,Disabled,Master,No,No,No,120,Off,No,No,None,57.95,12.121,Yes
271,Ockero 1 S,Analogue,	145.75000,	145.15000,12.5,,,,,,,,114.8,114.8,Disabled,Master,No,No,No,120,Off,No,No,None,57.7091,11.6431,Yes
272,Ockero 2,Digital,	434.85000,	432.85000,,6,2,None,Default,None,Text,Text,,,,Master,No,No,No,120,Off,No,No,None,57.7091,11.6431,Yes
273,Orby 1 LSE,Analogue,	145.23750,	145.23750,12.5,,,,,,,,None,None,Disabled,Master,No,No,No,120,Off,No,No,None,57.474,12.707,Yes
274,Orby 2 LA,Analogue,	434.22500,	434.22500,12.5,,,,,,,,None,None,Disabled,Master,No,No,No,120,Off,No,No,None,57.474,12.707,Yes
275,Algutsrum 1 SE,Analogue,	145.60000,	145.00000,12.5,,,,,,,,79.7,79.7,Disabled,Master,No,No,No,120,Off,No,No,None,56.6828,16.5646,Yes
276,Algutsrum 2 I,Digital,	434.55000,	432.55000,,7,2,None,Default,None,Text,Text,,,,Master,No,No,No,120,Off,No,No,None,56.6828,16.5646,Yes
277,Algutsrum 3 SE,Analogue,	434.60000,	432.60000,12.5,,,,,,,,79.7,79.7,Disabled,Master,No,No,No,120,Off,No,No,None,56.6828,16.5646,Yes
278,Bjarnum,Digital,	434.95000,	432.95000,,7,2,None,Default,None,Text,Text,,,,Master,No,No,No,120,Off,No,No,None,0,0,Yes
279,Blentarp 2,Analogue,	434.85000,	432.85000,12.5,,,,,,,,79.7,79.7,Disabled,Master,No,No,No,120,Off,No,No,None,55.5735,13.5235,Yes
280,Bredaryd,Analogue,	145.68750,	145.08750,12.5,,,,,,,,156.7,156.7,Disabled,Master,No,No,No,120,Off,No,No,None,57.1709,13.742,Yes
281,Borgholm 1 SE,Analogue,	145.66250,	145.06250,12.5,,,,,,,,79.7,79.7,Disabled,Master,No,No,No,120,Off,No,No,None,56.8406,16.6658,Yes
282,Borgholm 2 SE,Analogue,	434.77500,	432.77500,12.5,,,,,,,,79.7,79.7,Disabled,Master,No,No,No,120,Off,No,No,None,56.8406,16.6658,Yes
283,Borgholm 3 LS,Analogue,	145.31250,	145.31250,12.5,,,,,,,,None,None,Disabled,Master,No,No,No,120,Off,No,No,None,56.8809,16.6574,Yes
284,Bruzaholm,Digital,	434.60000,	432.60000,,7,2,None,Default,None,Text,Text,,,,Master,No,No,No,120,Off,No,No,None,57.6436,15.2712,Yes
285,Boda SE,Analogue,	145.75000,	145.15000,12.5,,,,,,,,79.7,79.7,Disabled,Master,No,No,No,120,Off,No,No,None,57.2629,17.0297,Yes
286,Ekenassjon 1 H,Digital,	144.85000,	144.85000,,7,2,None,Default,None,Text,Text,,,,Master,No,No,No,120,Off,No,No,None,57.4858,15.03,Yes
287,Ekenassjon 2,Digital,	145.71250,	145.11250,,7,2,None,Default,None,Text,Text,,,,Master,No,No,No,120,Off,No,No,None,57.4858,15.03,Yes
288,Eksjo,Digital,	434.56250,	432.56250,,7,2,None,Default,None,Text,Text,,,,Master,No,No,No,120,Off,No,No,None,57.647,15.018,Yes
289,Emmaboda 1,Analogue,	145.77500,	145.17500,12.5,,,,,,,,None,None,Disabled,Master,No,No,No,120,Off,No,No,None,56.632,15.545,Yes
290,Emmaboda 2,Digital,	434.78750,	432.78750,,7,2,None,Default,None,Text,Text,,,,Master,No,No,No,120,Off,No,No,None,56.6313,15.5049,Yes
291,Eslov 2,Analogue,	434.81250,	432.81250,12.5,,,,,,,,79.7,79.7,Disabled,Master,No,No,No,120,Off,No,No,None,55.8246,13.2855,Yes
292,Everod LS,Analogue,	145.23750,	145.23750,12.5,,,,,,,,None,None,Disabled,Master,No,No,No,120,Off,No,No,None,55.8998,14.0972,Yes
293,Farjestaden LSE,Analogue,	145.23750,	145.23750,12.5,,,,,,,,None,None,Disabled,Master,No,No,No,120,Off,No,No,None,56.6449,16.4635,Yes
294,Gladsax 1 I,Digital,	145.57500,	144.97500,,7,2,None,Default,None,Text,Text,,,,Master,No,No,No,120,Off,No,No,None,55.5611,14.2808,Yes
295,Gladsax 2,Analogue,	434.88750,	432.88750,12.5,,,,,,,,79.7,79.7,Disabled,Master,No,No,No,120,Off,No,No,None,55.5611,14.2808,Yes
296,Hallandsas 1 S,Analogue,	145.78750,	145.18750,12.5,,,,,,,,79.7,79.7,Disabled,Master,No,No,No,120,Off,No,No,None,56.3878,12.9624,Yes
297,Hallandsas 2 S,Analogue,	434.66250,	432.66250,12.5,,,,,,,,79.7,79.7,Disabled,Master,No,No,No,120,Off,No,No,None,56.3878,12.9624,Yes
298,Helsingborg 2,Digital,	434.60000,	432.60000,,7,2,None,Default,None,Text,Text,,,,Master,No,No,No,120,Off,No,No,None,56.0362,12.704,Yes
299,Hillerstorp,Analogue,	434.60000,	432.60000,12.5,,,,,,,,156.7,156.7,Disabled,Master,No,No,No,120,Off,No,No,None,57.3426,13.8567,Yes
300,Hultsfred,Analogue,	145.76250,	145.16250,12.5,,,,,,,,None,None,Disabled,Master,No,No,No,120,Off,No,No,None,57.4948,15.8416,Yes
301,Huskvarna,Analogue,	434.75000,	432.75000,12.5,,,,,,,,156.7,156.7,Disabled,Master,No,No,No,120,Off,No,No,None,57.8105,14.3,Yes
302,Hoor,Digital,	434.91250,	432.91250,,7,2,None,Default,None,Text,Text,,,,Master,No,No,No,120,Off,No,No,None,55.9567,13.5661,Yes
303,Jonkoping 2,Analogue,	145.75000,	145.15000,12.5,,,,,,,,156.7,156.7,Disabled,Master,No,No,No,120,Off,No,No,None,57.6802,14.082,Yes
304,Jonkoping 3,Digital,	434.97500,	432.97500,,7,2,None,Default,None,Text,Text,,,,Master,No,No,No,120,Off,No,No,None,57.7654,14.248,Yes
305,Jonkoping 4 S,Analogue,	145.70000,	145.10000,12.5,,,,,,,,156.7,156.7,Disabled,Master,No,No,No,120,Off,No,No,None,57.7654,14.248,Yes
306,Karlshamn,Analogue,	434.92500,	432.92500,12.5,,,,,,,,79.7,79.7,Disabled,Master,No,No,No,120,Off,No,No,None,56.1674,14.8601,Yes
307,Karlskrona 1,Analogue,	145.75000,	145.15000,12.5,,,,,,,,156.7,156.7,Disabled,Master,No,No,No,120,Off,No,No,None,56.2,15.62,Yes
308,Karlskrona 2,Analogue,	434.75000,	432.75000,12.5,,,,,,,,None,None,Disabled,Master,No,No,No,120,Off,No,No,None,56.2,15.62,Yes
309,Kristianstad 1 S,Analogue,	145.73750,	145.13750,12.5,,,,,,,,79.7,79.7,Disabled,Master,No,No,No,120,Off,No,No,None,56.005,14.065,Yes
310,Kristianstad 2,Digital,	434.52500,	432.52500,,7,2,None,Default,None,Text,Text,,,,Master,No,No,No,120,Off,No,No,None,56.005,14.065,Yes
311,Linderod I,Digital,	145.58750,	144.98750,,14,2,None,Default,None,Text,Text,,,,Master,No,No,No,120,Off,No,No,None,55.9166,13.75,Yes
312,Ljungby SE,Analogue,	145.72500,	145.12500,12.5,,,,,,,,94.8,94.8,Disabled,Master,No,No,No,120,Off,No,No,None,56.9026,13.946,Yes
313,Lund 1,Analogue,	145.77500,	145.17500,12.5,,,,,,,,79.7,79.7,Disabled,Master,No,No,No,120,Off,No,No,None,55.697,13.284,Yes
314,Lund 2,Digital,	434.58750,	432.58750,,7,2,None,Default,None,Text,Text,,,,Master,No,No,No,120,Off,No,No,None,55.7348,13.2308,Yes
315,Lund 3,Analogue,	434.72500,	432.72500,12.5,,,,,,,,79.7,79.7,Disabled,Master,No,No,No,120,Off,No,No,None,55.7292,13.2083,Yes
316,Lonsboda 2,Digital,	434.95000,	432.95000,,7,2,None,Default,None,Text,Text,,,,Master,No,No,No,120,Off,No,No,None,56.3939,14.3208,Yes
317,Malmo 1 I,Digital,	434.61250,	432.61250,,7,2,None,Default,None,Text,Text,,,,Master,No,No,No,120,Off,No,No,None,55.5781,13.0089,Yes
318,Malmo 2,Digital,	434.77500,	432.77500,,7,2,None,Default,None,Text,Text,,,,Master,No,No,No,120,Off,No,No,None,55.5978,12.9846,Yes
319,Moheda SE,Analogue,	145.63750,	145.03750,12.5,,,,,,,,225.7,225.7,Disabled,Master,No,No,No,120,Off,No,No,None,56.9987,14.5844,Yes
320,Morbylanga SE,Analogue,	145.62500,	145.02500,12.5,,,,,,,,79.7,79.7,Disabled,Master,No,No,No,120,Off,No,No,None,56.5151,16.4392,Yes
321,Nybro,Analogue,	145.68750,	145.08750,12.5,,,,,,,,None,None,Disabled,Master,No,No,No,120,Off,No,No,None,56.6875,15.7917,Yes
322,Nassjo 1,Digital,	145.58750,	144.98750,,7,2,None,Default,None,Text,Text,,,,Master,No,No,No,120,Off,No,No,None,57.65,14.7,Yes
323,Nassjo 2,Analogue,	145.65000,	145.05000,12.5,,,,,,,,156.7,156.7,Disabled,Master,No,No,No,120,Off,No,No,None,57.65,14.7,Yes
324,Nassjo 3,Analogue,	434.85000,	432.85000,12.5,,,,,,,,None,None,Disabled,Master,No,No,No,120,Off,No,No,None,57.65,14.7,Yes
325,Nassjo 4,Digital,	434.90000,	432.90000,,7,2,None,Default,None,Text,Text,,,,Master,No,No,No,120,Off,No,No,None,57.65,14.7,Yes
326,Olofstrom 1 E,Analogue,	145.70000,	145.10000,12.5,,,,,,,,79.7,79.7,Disabled,Master,No,No,No,120,Off,No,No,None,56.2292,14.4583,Yes
327,Olofstrom 2 I,Digital,	434.71250,	432.71250,,7,2,None,Default,None,Text,Text,,,,Master,No,No,No,120,Off,No,No,None,56.2292,14.4583,Yes
328,Oskarshamn 1,Analogue,	145.72500,	145.12500,12.5,,,,,,,,None,None,Disabled,Master,No,No,No,120,Off,No,No,None,57.26,16.4,Yes
329,Oskarshamn 2,Analogue,	434.72500,	432.72500,12.5,,,,,,,,None,None,Disabled,Master,No,No,No,120,Off,No,No,None,57.26,16.4,Yes
330,Sjobo,Digital,	434.92500,	432.92500,,7,2,None,Default,None,Text,Text,,,,Master,No,No,No,120,Off,No,No,None,55.6408,13.709,Yes
331,Spjutsbygd 1 S,Analogue,	145.72500,	145.12500,12.5,,,,,,,,79.7,79.7,Disabled,Master,No,No,No,120,Off,No,No,None,56.3121,15.5971,Yes
332,Savsjo,Digital,	434.52500,	432.52500,,7,2,None,Default,None,Text,Text,,,,Master,No,No,No,120,Off,No,No,None,57.4014,14.6543,Yes
333,Soderasen 1 S,Analogue,	145.65000,	145.05000,12.5,,,,,,,,None,None,Disabled,Master,No,No,No,120,Off,No,No,None,56.0517,13.1047,Yes
334,Soderasen 2,Digital,	434.65000,	432.65000,,7,2,None,Default,None,Text,Text,,,,Master,No,No,No,120,Off,No,No,None,56.0517,13.1047,Yes
335,Sodra_Vi 1,Digital,	434.66250,	432.66250,,7,2,None,Default,None,Text,Text,,,,Master,No,No,No,120,Off,No,No,None,0,0,Yes
336,Sodra_Vi 2 LAE,Analogue,	433.50000,	433.50000,12.5,,,,,,,,None,None,Disabled,Master,No,No,No,120,Off,No,No,None,0,0,Yes
337,Solvesborg L,Analogue,	434.40000,	434.40000,12.5,,,,,,,,79.7,79.7,Disabled,Master,No,No,No,120,Off,No,No,None,56.0489,14.5844,Yes
338,Tomelilla,Digital,	434.63750,	432.63750,,7,2,None,Default,None,Text,Text,,,,Master,No,No,No,120,Off,No,No,None,55.5425,13.9559,Yes
339,Vetlanda 1,Analogue,	145.62500,	145.02500,12.5,,,,,,,,156.7,156.7,Disabled,Master,No,No,No,120,Off,No,No,None,57.499,15.244,Yes
340,Vetlanda 2,Analogue,	434.62500,	432.62500,12.5,,,,,,,,156.7,156.7,Disabled,Master,No,No,No,120,Off,No,No,None,57.499,15.244,Yes
341,Vitaby,Analogue,	145.61250,	145.01250,12.5,,,,,,,,79.7,79.7,Disabled,Master,No,No,No,120,Off,No,No,None,55.6955,14.16,Yes
342,Varnamo 1,Analogue,	145.60000,	145.00000,12.5,,,,,,,,156.7,156.7,Disabled,Master,No,No,No,120,Off,No,No,None,57.1816,14.0785,Yes
343,Vastervik 1,Analogue,	145.67500,	145.07500,12.5,,,,,,,,77.0,77.0,Disabled,Master,No,No,No,120,Off,No,No,None,57.7567,16.6182,Yes
344,Vastervik 2,Digital,	434.67500,	432.67500,,7,2,None,Default,None,Text,Text,,,,Master,No,No,No,120,Off,No,No,None,57.7937,16.5758,Yes
345,Vaxjo 1 SE,Analogue,	145.67500,	145.07500,12.5,,,,,,,,156.7,156.7,Disabled,Master,No,No,No,120,Off,No,No,None,56.8666,14.8833,Yes
346,Vaxjo 2,Digital,	434.70000,	432.70000,,7,2,None,Default,None,Text,Text,,,,Master,No,No,No,120,Off,No,No,None,56.8666,14.8833,Yes
347,Orkelljunga,Digital,	434.97500,	432.97500,,7,2,None,Default,None,Text,Text,,,,Master,No,No,No,120,Off,No,No,None,56.28,13.27,Yes
348,Aalgaard,Digital,	434.95000,	432.95000,,1,2,None,Default,None,Text,Text,,,,Master,No,No,No,120,Off,No,No,None,0,0,Yes
349,Aamot,Digital,	434.70000,	432.70000,,1,2,None,Default,None,Text,Text,,,,Master,No,No,No,120,Off,No,No,None,0,0,Yes
350,Aasbygda,Digital,	434.81250,	432.81250,,1,2,None,Default,None,Text,Text,,,,Master,No,No,No,120,Off,No,No,None,0,0,Yes
351,Arendal,Analogue,	145.70000,	145.10000,12.5,,,,,,,,192.8,192.8,Disabled,Master,No,No,No,120,Off,No,No,None,58.4636,8.7667,Yes
352,Bardufoss,Digital,	434.65000,	432.65000,,1,2,None,Default,None,Text,Text,,,,Master,No,No,No,120,Off,No,No,None,0,0,Yes
353,Barum,Digital,	434.92500,	432.92500,,1,2,None,Default,None,Text,Text,,,,Master,No,No,No,120,Off,No,No,None,59.929,10.5165,Yes
354,Bergen,Digital,	434.82500,	432.82500,,1,2,None,Default,None,Text,Text,,,,Master,No,No,No,120,Off,No,No,None,0,0,Yes
355,Bergen 2 E,Analogue,	145.75000,	145.15000,12.5,,,,,,,,97.4,97.4,Disabled,Master,No,No,No,120,Off,No,No,None,60.3958,5.375,Yes
356,Bergen 3,Analogue,	145.77500,	145.17500,12.5,,,,,,,,97.4,97.4,Disabled,Master,No,No,No,120,Off,No,No,None,61.0625,5.125,Yes
357,Bjerkreim,Analogue,	145.71250,	145.11250,12.5,,,,,,,,110.9,110.9,Disabled,Master,No,No,No,120,Off,No,No,None,58.6331,5.9547,Yes
358,Bodo I,Analogue,	145.75000,	145.15000,12.5,,,,,,,,88.5,88.5,Disabled,Master,No,No,No,120,Off,No,No,None,67.2803,14.4049,Yes
359,Bronnoysund,Digital,	434.97500,	432.97500,,1,2,None,Default,None,Text,Text,,,,Master,No,No,No,120,Off,No,No,None,0,0,Yes
360,Drammen 1,Digital,	434.52500,	432.52500,,1,2,None,Default,None,Text,Text,,,,Master,No,No,No,120,Off,No,No,None,59.7559,10.2049,Yes
361,Drammen 2,Analogue,	145.72500,	145.12500,12.5,,,,,,,,74.4,74.4,Disabled,Master,No,No,No,120,Off,No,No,None,59.7291,10.2457,Yes
362,Drammen 3,Analogue,	434.72500,	432.72500,12.5,,,,,,,,74.4,74.4,Disabled,Master,No,No,No,120,Off,No,No,None,59.7291,10.2457,Yes
363,Egersund,Digital,	145.58750,	144.98750,,1,2,None,Default,None,Text,Text,,,,Master,No,No,No,120,Off,No,No,None,0,0,Yes
364,Egersund 2,Analogue,	145.72500,	145.12500,12.5,,,,,,,,107.2,107.2,Disabled,Master,No,No,No,120,Off,No,No,None,58.6042,6.2916,Yes
365,Eidsvoll,Analogue,	434.87500,	432.87500,12.5,,,,,,,,82.5,82.5,Disabled,Master,No,No,No,120,Off,No,No,None,60.3958,11.125,Yes
366,Eirefjell,Analogue,	145.71250,	145.11250,12.5,,,,,,,,74.4,74.4,Disabled,Master,No,No,No,120,Off,No,No,None,59.49,8.09,Yes
367,Fauske,Digital,	434.95000,	432.95000,,1,2,None,Default,None,Text,Text,,,,Master,No,No,No,120,Off,No,No,None,0,0,Yes
368,Follo 1,Digital,	434.90000,	432.90000,,1,2,None,Default,None,Text,Text,,,,Master,No,No,No,120,Off,No,No,None,59.7708,11.0417,Yes
369,Follo 2,Analogue,	145.78750,	145.18750,12.5,,,,,,,,110.9,110.9,Disabled,Master,No,No,No,120,Off,No,No,None,59.7708,11.0417,Yes
370,Follo 3,Digital,	434.75000,	432.75000,,1,2,None,Default,None,Text,Text,,,,Master,No,No,No,120,Off,No,No,None,59.7708,10.7917,Yes
371,Fosen,Analogue,	434.62500,	432.62500,12.5,,,,,,,,110.9,110.9,Disabled,Master,No,No,No,120,Off,No,No,None,63.3125,9.125,Yes
372,Fredrikstad 1,Analogue,	145.68750,	145.08750,12.5,,,,,,,,85.4,85.4,Disabled,Master,No,No,No,120,Off,No,No,None,59.2708,10.9583,Yes
373,Fredrikstad 2,Analogue,	434.70000,	432.70000,12.5,,,,,,,,85.4,85.4,Disabled,Master,No,No,No,120,Off,No,No,None,59.2314,10.9629,Yes
374,Fredrikstad 3 L,Analogue,	145.25000,	145.25000,12.5,,,,,,,,100.0,100.0,Disabled,Master,No,No,No,120,Off,No,No,None,59.2292,10.9583,Yes
375,Fredrikstad 5,Digital,	434.71250,	432.71250,,11,2,None,Default,None,Text,Text,,,,Master,No,No,No,120,Off,No,No,None,0,0,Yes
376,Gardermoen,Analogue,	145.73750,	145.13750,12.5,,,,,,,,123.0,123.0,Disabled,Master,No,No,No,120,Off,No,No,None,60.3958,11.125,Yes
377,Gaustatoppen,Analogue,	145.61250,	145.01250,12.5,,,,,,,,74.4,74.4,Disabled,Master,No,No,No,120,Off,No,No,None,59.8546,8.6492,Yes
378,Geilo,Digital,	434.65000,	432.65000,,1,2,None,Default,None,Text,Text,,,,Master,No,No,No,120,Off,No,No,None,0,0,Yes
379,Grimstad I,Digital,	434.70000,	432.70000,,1,2,None,Default,None,Text,Text,,,,Master,No,No,No,120,Off,No,No,None,58.3824,8.5917,Yes
380,Harpefoss,Analogue,	145.72500,	145.12500,12.5,,,,,,,,71.9,71.9,Disabled,Master,No,No,No,120,Off,No,No,None,61.5208,9.7916,Yes
381,Harstad,Digital,	434.80000,	432.80000,,1,2,None,Default,None,Text,Text,,,,Master,No,No,No,120,Off,No,No,None,68.2166,16.0083,Yes
382,Haugesund 1,Digital,	434.75000,	432.75000,,0,2,None,Default,None,Text,Text,,,,Master,No,No,No,120,Off,No,No,None,59.3542,5.2916,Yes
383,Haugesund 2,Analogue,	434.67500,	432.67500,12.5,,,,,,,,107.2,107.2,Disabled,Master,No,No,No,120,Off,No,No,None,0,0,Yes
384,Haueheia,Digital,	145.16250,	145.76250,,1,2,None,Default,None,Text,Text,,,,Master,No,No,No,120,Off,No,No,None,0,0,Yes
385,Hokasen 1,Analogue,	145.71250,	145.11250,12.5,,,,,,,,71.9,71.9,Disabled,Master,No,No,No,120,Off,No,No,None,60.3241,12.1382,Yes
386,Hokasen 2,Analogue,	434.65000,	432.65000,12.5,,,,,,,,71.9,71.9,Disabled,Master,No,No,No,120,Off,No,No,None,60.3241,12.1382,Yes
387,Hokasen 3,Analogue,	434.56250,	432.56250,12.5,,,,,,,,71.9,71.9,Disabled,Master,No,No,No,120,Off,No,No,None,60.3241,12.1382,Yes
388,Holmestrand,Digital,	434.65000,	432.65000,,1,2,None,Default,None,Text,Text,,,,Master,No,No,No,120,Off,No,No,None,59.546,10.196,Yes
389,Horten,Analogue,	145.62500,	145.02500,12.5,,,,,,,,74.4,74.4,Disabled,Master,No,No,No,120,Off,No,No,None,59.3958,10.375,Yes
390,Hovassfjell,Analogue,	145.60000,	145.00000,12.5,,,,,,,,192.8,192.8,Disabled,Master,No,No,No,120,Off,No,No,None,58.9951,7.7347,Yes
391,Hurdal,Digital,	434.87500,	432.87500,,1,2,None,Default,None,Text,Text,,,,Master,No,No,No,120,Off,No,No,None,0,0,Yes
392,Hvittingen,Digital,	434.65000,	432.65000,,1,2,None,Default,None,Text,Text,,,,Master,No,No,No,120,Off,No,No,None,0,0,Yes
393,Kirkenes,Analogue,	145.75000,	145.15000,12.5,,,,,,,,None,None,Disabled,Master,No,No,No,120,Off,No,No,None,69.6952,30.0582,Yes
394,Kolsas,Digital,	434.92500,	432.92500,,1,2,None,Default,None,Text,Text,,,,Master,No,No,No,120,Off,No,No,None,0,0,Yes
395,Kongsberg 1,Digital,	434.83750,	432.83750,,0,2,None,Default,None,Text,Text,,,,Master,No,No,No,120,Off,No,No,None,59.6709,9.5748,Yes
396,Kongsberg 2,Analogue,	145.70000,	145.10000,12.5,,,,,,,,None,None,Disabled,Master,No,No,No,120,Off,No,No,None,59.6875,9.5416,Yes
397,Kongsberg 3,Analogue,	434.62500,	432.62500,12.5,,,,,,,,None,None,Disabled,Master,No,No,No,120,Off,No,No,None,59.6709,9.5748,Yes
398,Kongsvinger 1,Analogue,	434.62500,	432.62500,12.5,,,,,,,,71.9,71.9,Disabled,Master,No,No,No,120,Off,No,No,None,60.1726,11.988,Yes
399,Kongsvinger 2,Digital,	434.71250,	432.71250,,1,2,None,Default,None,Text,Text,,,,Master,No,No,No,120,Off,No,No,None,0,0,Yes
400,Kongsvinger 3,Analogue,	145.65000,	145.05000,12.5,,,,,,,,71.9,71.9,Disabled,Master,No,No,No,120,Off,No,No,None,60.1726,11.988,Yes
401,Kragero,Analogue,	434.85000,	432.85000,12.5,,,,,,,,74.4,74.4,Disabled,Master,No,No,No,120,Off,No,No,None,58.8679,9.3805,Yes
402,Kristianstad 3,Analogue,	145.75000,	145.15000,12.5,,,,,,,,123.0,123.0,Disabled,Master,No,No,No,120,Off,No,No,None,0,0,Yes
403,Kvelde,Analogue,	434.67500,	432.67500,12.5,,,,,,,,74.4,74.4,Disabled,Master,No,No,No,120,Off,No,No,None,59.198,9.958,Yes
404,Larvik L,Analogue,	144.65000,	144.65000,12.5,,,,,,,,88.5,88.5,Disabled,Master,No,No,No,120,Off,No,No,None,59.0208,9.9583,Yes
405,Meloy LE,Analogue,	145.28750,	145.28750,12.5,,,,,,,,None,None,Disabled,Master,No,No,No,120,Off,No,No,None,66.8798,13.7178,Yes
406,Mo_i_Rana 1,Digital,	434.85000,	432.85000,,0,2,None,Default,None,Text,Text,,,,Master,No,No,No,120,Off,No,No,None,0,0,Yes
407,Mo_i_Rana 2 E,Analogue,	145.67500,	145.07500,12.5,,,,,,,,88.5,88.5,Disabled,Master,No,No,No,120,Off,No,No,None,0,0,Yes
408,Mo_i_Rana 3 LI,Analogue,	145.33750,	145.33750,12.5,,,,,,,,88.5,88.5,Disabled,Master,No,No,No,120,Off,No,No,None,0,0,Yes
409,Moi,Digital,	434.86250,	432.86250,,1,2,None,Default,None,Text,Text,,,,Master,No,No,No,120,Off,No,No,None,0,0,Yes
410,Mosjoen 1,Digital,	434.82500,	432.82500,,1,2,None,Default,None,Text,Text,,,,Master,No,No,No,120,Off,No,No,None,65.8719,13.193,Yes
411,Mosjoen 2 LI,Analogue,	145.28750,	145.28750,12.5,,,,,,,,71.9,71.9,Disabled,Master,No,No,No,120,Off,No,No,None,65.8369,13.1934,Yes
412,Moss E,Analogue,	145.66250,	145.06250,12.5,,,,,,,,123.0,123.0,Disabled,Master,No,No,No,120,Off,No,No,None,59.3674,10.8129,Yes
413,Narvik,Digital,	434.75000,	432.75000,,1,2,None,Default,None,Text,Text,,,,Master,No,No,No,120,Off,No,No,None,0,0,Yes
414,Nesna LI,Analogue,	433.95000,	433.95000,12.5,,,,,,,,88.5,88.5,Disabled,Master,No,No,No,120,Off,No,No,None,66.2464,12.9318,Yes
415,Nesodden,Analogue,	145.67500,	145.07500,12.5,,,,,,,,110.9,110.9,Disabled,Master,No,No,No,120,Off,No,No,None,59.8233,10.65,Yes
416,Notodden 1,Analogue,	434.92500,	432.92500,12.5,,,,,,,,74.4,74.4,Disabled,Master,No,No,No,120,Off,No,No,None,59.4792,9.0416,Yes
417,Notodden 2 L,Analogue,	144.67500,	144.67500,12.5,,,,,,,,88.5,88.5,Disabled,Master,No,No,No,120,Off,No,No,None,59.4792,9.0416,Yes
418,Oppdal,Analogue,	145.77500,	145.17500,12.5,,,,,,,,None,None,Disabled,Master,No,No,No,120,Off,No,No,None,62.5625,9.7083,Yes
419,Oppegaard,Digital,	434.75000,	432.75000,,1,2,None,Default,None,Text,Text,,,,Master,No,No,No,120,Off,No,No,None,0,0,Yes
420,Oslo 1 E,Analogue,	434.97500,	432.97500,12.5,,,,,,,,110.9,110.9,Disabled,Master,No,No,No,120,Off,No,No,None,59.782,10.41,Yes
421,Oslo 2,Analogue,	434.77500,	432.77500,12.5,,,,,,,,123.0,123.0,Disabled,Master,No,No,No,120,Off,No,No,None,59.896,10.792,Yes
422,Oslo 3,Analogue,	145.60000,	145.00000,12.5,,,,,,,,123.0,123.0,Disabled,Master,No,No,No,120,Off,No,No,None,59.979,10.708,Yes
423,Ralingen 1,Analogue,	434.82500,	432.82500,12.5,,,,,,,,None,None,Disabled,Master,No,No,No,120,Off,No,No,None,59.9375,11.0417,Yes
424,Ralingen 2 E,Analogue,	145.76250,	145.16250,12.5,,,,,,,,77.0,77.0,Disabled,Master,No,No,No,120,Off,No,No,None,59.9375,11.0417,Yes
425,Raufoss,Digital,	434.97500,	432.97500,,1,2,None,Default,None,Text,Text,,,,Master,No,No,No,120,Off,No,No,None,0,0,Yes
426,Risor,Analogue,	145.77500,	145.17500,12.5,,,,,,,,107.2,107.2,Disabled,Master,No,No,No,120,Off,No,No,None,58.7675,9.1058,Yes
427,Rodoy LI,Analogue,	145.31250,	145.31250,12.5,,,,,,,,88.5,88.5,Disabled,Master,No,No,No,120,Off,No,No,None,66.7199,12.7777,Yes
428,Roverkollen,Digital,	434.88750,	432.88750,,1,2,None,Default,None,Text,Text,,,,Master,No,No,No,120,Off,No,No,None,0,0,Yes
429,Sandefjord 1,Analogue,	434.80000,	432.80000,12.5,,,,,,,,74.4,74.4,Disabled,Master,No,No,No,120,Off,No,No,None,59.039,10.202,Yes
430,Sandefjord 2,Analogue,	145.75000,	145.15000,12.5,,,,,,,,74.4,74.4,Disabled,Master,No,No,No,120,Off,No,No,None,59.1458,10.2083,Yes
431,Sandnessjoen 1,Digital,	434.80000,	432.80000,,1,2,None,Default,None,Text,Text,,,,Master,No,No,No,120,Off,No,No,None,66.0062,12.6179,Yes
432,Sandnessjoen 2,Analogue,	145.72500,	145.12500,12.5,,,,,,,,None,None,Disabled,Master,No,No,No,120,Off,No,No,None,65.9143,12.1817,Yes
433,Skien 1,Digital,	434.51250,	432.51250,,1,2,None,Default,None,Text,Text,,,,Master,No,No,No,120,Off,No,No,None,59.235,9.699,Yes
434,Skien 2,Analogue,	145.65000,	145.05000,12.5,,,,,,,,74.4,74.4,Disabled,Master,No,No,No,120,Off,No,No,None,59.235,9.699,Yes
435,Skien 3,Analogue,	434.61250,	432.61250,12.5,,,,,,,,74.4,74.4,Disabled,Master,No,No,No,120,Off,No,No,None,59.235,9.699,Yes
436,Skien 4,Analogue,	434.58750,	432.58750,12.5,,,,,,,,74.4,74.4,Disabled,Master,No,No,No,120,Off,No,No,None,59.235,9.699,Yes
437,Skotterud L,Analogue,	144.66250,	144.66250,12.5,,,,,,,,71.9,71.9,Disabled,Master,No,No,No,120,Off,No,No,None,59.9608,12.0957,Yes
438,Stavanger,Digital,	434.97500,	432.97500,,1,2,None,Default,None,Text,Text,,,,Master,No,No,No,120,Off,No,No,None,0,0,Yes
439,Stavanger 2,Analogue,	145.77500,	145.17500,12.5,,,,,,,,None,None,Disabled,Master,No,No,No,120,Off,No,No,None,59.2218,5.4244,Yes
440,Stokke,Digital,	434.55000,	432.55000,,1,2,None,Default,None,Text,Text,,,,Master,No,No,No,120,Off,No,No,None,0,0,Yes
441,Sunnhordland,Analogue,	145.62500,	145.02500,12.5,,,,,,,,79.7,79.7,Disabled,Master,No,No,No,120,Off,No,No,None,59.8739,5.4943,Yes
442,S._Sunnmore E,Analogue,	145.72500,	145.12500,12.5,,,,,,,,None,None,Disabled,Master,No,No,No,120,Off,No,No,None,0,0,Yes
443,Tonsberg,Analogue,	434.95000,	432.95000,12.5,,,,,,,,74.4,74.4,Disabled,Master,No,No,No,120,Off,No,No,None,59.2708,10.375,Yes
444,Torseterkampen,Analogue,	434.75000,	432.75000,12.5,,,,,,,,71.9,71.9,Disabled,Master,No,No,No,120,Off,No,No,None,60.6875,11.375,Yes
445,Tromso,Digital,	434.80000,	432.80000,,1,2,None,Default,None,Text,Text,,,,Master,No,No,No,120,Off,No,No,None,0,0,Yes
446,Tromso 2,Analogue,	434.75000,	432.75000,12.5,,,,,,,,91.5,91.5,Disabled,Master,No,No,No,120,Off,No,No,None,69.3833,20.1892,Yes
447,Tromso 3,Analogue,	145.62500,	145.02500,12.5,,,,,,,,123.0,123.0,Disabled,Master,No,No,No,120,Off,No,No,None,70.0625,20.4583,Yes
448,Tromso 4,Analogue,	145.75000,	145.15000,12.5,,,,,,,,123.0,123.0,Disabled,Master,No,No,No,120,Off,No,No,None,69.5744,18.4106,Yes
449,Tromso 5,Analogue,	434.72500,	432.72500,12.5,,,,,,,,123.0,123.0,Disabled,Master,No,No,No,120,Off,No,No,None,69.7232,18.7535,Yes
450,Vangsasen,Digital,	434.70000,	434.70000,,0,2,None,Default,None,Text,Text,,,,Master,No,No,No,120,Off,No,No,None,60.9413,11.1913,Yes
451,Verdal,Digital,	434.60000,	432.60000,,1,2,None,Default,None,Text,Text,,,,Master,No,No,No,120,Off,No,No,None,0,0,Yes
452,Verdal 2 L,Analogue,	145.45000,	145.45000,12.5,,,,,,,,None,None,Disabled,Master,No,No,No,120,Off,No,No,None,63.8116,11.541,Yes
453,Vesteralen,Analogue,	145.60000,	145.00000,12.5,,,,,,,,123.0,123.0,Disabled,Master,No,No,No,120,Off,No,No,None,68.5625,14.875,Yes
454,Alvdalen 2,Analogue,	145.60000,	145.00000,12.5,,,,,,,,71.9,71.9,Disabled,Master,No,No,No,120,Off,No,No,None,0,0,Yes
455,Aanekoski,Digital,	434.51250,	432.51250,,1,2,None,Default,None,Text,Text,,,,Master,No,No,No,120,Off,No,No,None,0,0,Yes
456,Artjarvi,Analogue,	434.77500,	433.17500,12.5,,,,,,,,None,None,Disabled,Master,No,No,No,120,Off,No,No,None,60.75,26.083,Yes
457,Dalkarby,Analogue,	145.67500,	145.07500,12.5,,,,,,,,67.0,67.0,Disabled,Master,No,No,No,120,Off,No,No,None,60.1416,19.9551,Yes
458,Erkyla,Analogue,	145.72500,	145.12500,12.5,,,,,,,,None,None,Disabled,Master,No,No,No,120,Off,No,No,None,60.7023,24.9186,Yes
459,Espoo 1,Digital,	434.51250,	432.51250,,0,2,None,Default,None,Text,Text,,,,Master,No,No,No,120,Off,No,No,None,60.1564,24.6613,Yes
460,Espoo 2,Analogue,	145.78750,	145.18750,12.5,,,,,,,,118.8,118.8,Disabled,Master,No,No,No,120,Off,No,No,None,60.18,24.75,Yes
461,Espoo 3,Analogue,	145.62500,	145.02500,12.5,,,,,,,,118.8,118.8,Disabled,Master,No,No,No,120,Off,No,No,None,60.18,24.75,Yes
462,Espoo 4,Analogue,	434.82500,	432.82500,12.5,,,,,,,,118.8,118.8,Disabled,Master,No,No,No,120,Off,No,No,None,60.18,24.75,Yes
463,Forssa,Analogue,	145.65000,	145.05000,12.5,,,,,,,,None,None,Disabled,Master,No,No,No,120,Off,No,No,None,60.819,23.621,Yes
464,Helsinki 1,Digital,	434.57500,	432.57500,,0,2,None,Default,None,Text,Text,,,,Master,No,No,No,120,Off,No,No,None,60.1969,24.9368,Yes
465,Helsinki 2,Analogue,	145.75000,	145.15000,12.5,,,,,,,,118.8,118.8,Disabled,Master,No,No,No,120,Off,No,No,None,60.2006,24.9388,Yes
466,Hameenlinna 1,Digital,	434.58750,	432.58750,,1,2,None,Default,None,Text,Text,,,,Master,No,No,No,120,Off,No,No,None,0,0,Yes
467,Hameenlinna 2,Analogue,	145.67500,	145.07500,12.5,,,,,,,,None,None,Disabled,Master,No,No,No,120,Off,No,No,None,60.9502,24.4845,Yes
468,Hameenlinna 3,Analogue,	434.62500,	432.62500,12.5,,,,,,,,None,None,Disabled,Master,No,No,No,120,Off,No,No,None,60.9502,24.4845,Yes
469,Hamina,Analogue,	434.92500,	433.32500,12.5,,,,,,,,None,None,Disabled,Master,No,No,No,120,Off,No,No,None,60.6458,27.125,Yes
470,Imatra,Digital,	434.52500,	432.52500,,1,2,None,Default,None,Text,Text,,,,Master,No,No,No,120,Off,No,No,None,0,0,Yes
471,Iisalmi 1,Analogue,	145.65000,	145.05000,12.5,,,,,,,,None,None,Disabled,Master,No,No,No,120,Off,No,No,None,63.567,27.183,Yes
472,Iisalmi 2,Analogue,	434.75000,	433.15000,12.5,,,,,,,,None,None,Disabled,Master,No,No,No,120,Off,No,No,None,63.567,27.183,Yes
473,Imatra,Digital,	434.52500,	432.52500,,1,2,None,Default,None,Text,Text,,,,Master,No,No,No,120,Off,No,No,None,0,0,Yes
474,Jakobstad 1 E,Analogue,	145.62500,	145.02500,12.5,,,,,,,,None,None,Disabled,Master,No,No,No,120,Off,No,No,None,63.6985,22.71,Yes
475,Jakobstad 2,Analogue,	434.70000,	432.70000,12.5,,,,,,,,110.9,110.9,Disabled,Master,No,No,No,120,Off,No,No,None,63.6716,22.6857,Yes
476,Jamijarvi,Analogue,	434.97500,	432.97500,12.5,,,,,,,,None,None,Disabled,Master,No,No,No,120,Off,No,No,None,61.7765,22.7225,Yes
477,Jamsa 1,Digital,	434.56250,	432.56250,,1,2,None,Default,None,Text,Text,,,,Master,No,No,No,120,Off,No,No,None,0,0,Yes
478,Jamsa 2,Analogue,	145.60000,	145.00000,12.5,,,,,,,,None,None,Disabled,Master,No,No,No,120,Off,No,No,None,61.8958,25.2917,Yes
479,Jamsankoski,Analogue,	434.70000,	433.10000,12.5,,,,,,,,None,None,Disabled,Master,No,No,No,120,Off,No,No,None,61.9375,25.2083,Yes
480,Jarvenpaa,Analogue,	434.65000,	432.65000,12.5,,,,,,,,118.8,118.8,Disabled,Master,No,No,No,120,Off,No,No,None,60.478,25.083,Yes
481,Joensuu 1,Analogue,	145.75000,	145.15000,12.5,,,,,,,,None,None,Disabled,Master,No,No,No,120,Off,No,No,None,62.6,29.767,Yes
482,Joensuu 2,Analogue,	434.65000,	433.05000,12.5,,,,,,,,None,None,Disabled,Master,No,No,No,120,Off,No,No,None,62.6,29.767,Yes
483,Joensuu 3,Analogue,	145.72500,	145.12500,12.5,,,,,,,,118.8,118.8,Disabled,Master,No,No,No,120,Off,No,No,None,62.5784,29.83,Yes
484,Jomala,Digital,	434.55000,	432.55000,,1,2,None,Default,None,Text,Text,,,,Master,No,No,No,120,Off,No,No,None,60.13,19.93,Yes
485,Joutseno,Analogue,	145.77500,	145.17500,12.5,,,,,,,,None,None,Disabled,Master,No,No,No,120,Off,No,No,None,61.0937,28.3808,Yes
486,Jyvaskyla 1,Digital,	434.53750,	432.53750,,1,2,None,Default,None,Text,Text,,,,Master,No,No,No,120,Off,No,No,None,0,0,Yes
487,Jyvaskyla 2,Analogue,	145.70000,	145.10000,12.5,,,,,,,,None,None,Disabled,Master,No,No,No,120,Off,No,No,None,62.233,25.733,Yes
488,Jyvaskyla 3,Analogue,	434.65000,	433.05000,12.5,,,,,,,,None,None,Disabled,Master,No,No,No,120,Off,No,No,None,62.2708,25.7083,Yes
489,Jyvaskyla 4,Analogue,	434.72500,	432.72500,12.5,,,,,,,,110.9,110.9,Disabled,Master,No,No,No,120,Off,No,No,None,62.2358,25.7208,Yes
490,Kaarina,Analogue,	145.65000,	145.05000,12.5,,,,,,,,None,None,Disabled,Master,No,No,No,120,Off,No,No,None,60.391,22.376,Yes
491,Kajaani 1,Analogue,	145.70000,	145.10000,12.5,,,,,,,,None,None,Disabled,Master,No,No,No,120,Off,No,No,None,64.2034,27.7352,Yes
492,Kajaani 2,Analogue,	434.67500,	433.07500,12.5,,,,,,,,None,None,Disabled,Master,No,No,No,120,Off,No,No,None,64.2034,27.7352,Yes
493,Kankaanpaa,Analogue,	145.62500,	145.02500,12.5,,,,,,,,None,None,Disabled,Master,No,No,No,120,Off,No,No,None,61.803,22.39,Yes
494,Kauhajoki,Analogue,	434.87500,	433.27500,12.5,,,,,,,,None,None,Disabled,Master,No,No,No,120,Off,No,No,None,62.424,22.17,Yes
495,Kaustinen,Analogue,	434.90000,	432.90000,12.5,,,,,,,,110.9,110.9,Disabled,Master,No,No,No,120,Off,No,No,None,63.533,23.7,Yes
496,Kemijarvi,Analogue,	145.65000,	145.05000,12.5,,,,,,,,None,None,Disabled,Master,No,No,No,120,Off,No,No,None,66.7071,27.4475,Yes
497,Kiukainen,Analogue,	145.72500,	145.12500,12.5,,,,,,,,None,None,Disabled,Master,No,No,No,120,Off,No,No,None,61.217,22.083,Yes
498,Kokkola 1,Digital,	145.57500,	144.97500,,1,2,None,Default,None,Text,Text,,,,Master,No,No,No,120,Off,No,No,None,0,0,Yes
499,Kokkola 2,Analogue,	145.70000,	145.10000,12.5,,,,,,,,None,None,Disabled,Master,No,No,No,120,Off,No,No,None,63.844,23.128,Yes
500,Kokkola 3,Analogue,	434.80000,	432.80000,12.5,,,,,,,,110.9,110.9,Disabled,Master,No,No,No,120,Off,No,No,None,63.844,23.128,Yes
501,Kokemaki,Analogue,	434.65000,	433.05000,12.5,,,,,,,,None,None,Disabled,Master,No,No,No,120,Off,No,No,None,61.25,22.35,Yes
502,Kolari,Analogue,	145.60000,	145.00000,12.5,,,,,,,,None,None,Disabled,Master,No,No,No,120,Off,No,No,None,67.5649,24.2236,Yes
503,Koski,Analogue,	434.92500,	432.92500,12.5,,,,,,,,None,None,Disabled,Master,No,No,No,120,Off,No,No,None,60.6989,23.0332,Yes
504,Kotka 1,Digital,	434.56250,	432.56250,,1,2,None,Default,None,Text,Text,,,,Master,No,No,No,120,Off,No,No,None,0,0,Yes
505,Kotka 2,Analogue,	145.65000,	145.05000,12.5,,,,,,,,None,None,Disabled,Master,No,No,No,120,Off,No,No,None,60.485,26.866,Yes
506,Kouvola 1,Digital,	434.58750,	432.58750,,1,2,None,Default,None,Text,Text,,,,Master,No,No,No,120,Off,No,No,None,0,0,Yes
507,Kouvola 2,Analogue,	434.85000,	433.25000,12.5,,,,,,,,None,None,Disabled,Master,No,No,No,120,Off,No,No,None,60.867,26.7,Yes
508,Kuopio,Analogue,	145.60000,	145.00000,12.5,,,,,,,,118.8,118.8,Disabled,Master,No,No,No,120,Off,No,No,None,62.9,27.683,Yes
509,Kuusamo 1,Analogue,	145.72500,	145.12500,12.5,,,,,,,,None,None,Disabled,Master,No,No,No,120,Off,No,No,None,65.9433,29.1022,Yes
510,Kuusamo 2,Analogue,	434.72500,	433.12500,12.5,,,,,,,,None,None,Disabled,Master,No,No,No,120,Off,No,No,None,65.9433,29.1022,Yes
511,Kuusankoski,Analogue,	145.70000,	145.10000,12.5,,,,,,,,None,None,Disabled,Master,No,No,No,120,Off,No,No,None,60.91,26.624,Yes
512,Lahti 1,Digital,	434.55000,	432.55000,,0,2,None,Default,None,Text,Text,,,,Master,No,No,No,120,Off,No,No,None,60.991,25.6739,Yes
513,Lahti 2,Analogue,	145.77500,	145.17500,12.5,,,,,,,,None,None,Disabled,Master,No,No,No,120,Off,No,No,None,60.9787,25.6487,Yes
514,Lahti 3,Analogue,	434.60000,	432.60000,12.5,,,,,,,,123.0,123.0,Disabled,Master,No,No,No,120,Off,No,No,None,60.9787,25.6487,Yes
515,Lappeenranta 1,Digital,	434.53750,	432.53750,,1,2,None,Default,None,Text,Text,,,,Master,No,No,No,120,Off,No,No,None,61.0661,28.2411,Yes
516,Lappeenranta 2,Analogue,	434.77500,	432.77500,12.5,,,,,,,,None,None,Disabled,Master,No,No,No,120,Off,No,No,None,61.058,28.2093,Yes
517,Lapua,Analogue,	145.65000,	145.05000,12.5,,,,,,,,None,None,Disabled,Master,No,No,No,120,Off,No,No,None,62.96,23.03,Yes
518,Lohja 1,Digital,	145.57500,	144.97500,,1,2,None,Default,None,Text,Text,,,,Master,No,No,No,120,Off,No,No,None,0,0,Yes
519,Lohja 2,Analogue,	145.60000,	145.00000,12.5,,,,,,,,None,None,Disabled,Master,No,No,No,120,Off,No,No,None,60.3477,24.0581,Yes
520,Lohja 3,Analogue,	434.72500,	433.12500,12.5,,,,,,,,None,None,Disabled,Master,No,No,No,120,Off,No,No,None,60.25,24.083,Yes
521,Loviisa 1,Analogue,	145.60000,	145.00000,12.5,,,,,,,,None,None,Disabled,Master,No,No,No,120,Off,No,No,None,60.456,26.222,Yes
522,Loviisa 2,Analogue,	434.70000,	433.10000,12.5,,,,,,,,None,None,Disabled,Master,No,No,No,120,Off,No,No,None,60.456,26.222,Yes
523,Mikkeli 1,Analogue,	434.75000,	433.15000,12.5,,,,,,,,None,None,Disabled,Master,No,No,No,120,Off,No,No,None,61.683,27.25,Yes
524,Mikkeli 2,Analogue,	145.75000,	145.15000,12.5,,,,,,,,None,None,Disabled,Master,No,No,No,120,Off,No,No,None,61.683,27.25,Yes
525,Narpio 1,Analogue,	145.70000,	145.10000,12.5,,,,,,,,None,None,Disabled,Master,No,No,No,120,Off,No,No,None,62.474,21.336,Yes
526,Narpio 2,Analogue,	434.80000,	433.20000,12.5,,,,,,,,None,None,Disabled,Master,No,No,No,120,Off,No,No,None,62.474,21.336,Yes
527,Nivala,Analogue,	145.60000,	145.00000,12.5,,,,,,,,None,None,Disabled,Master,No,No,No,120,Off,No,No,None,63.923,24.958,Yes
528,Nurmes,Analogue,	145.67500,	145.07500,12.5,,,,,,,,118.8,118.8,Disabled,Master,No,No,No,120,Off,No,No,None,63.544,29.145,Yes
529,Nurmijarvi,Digital,	434.56250,	432.56250,,1,2,None,Default,None,Text,Text,,,,Master,No,No,No,120,Off,No,No,None,0,0,Yes
530,Oulu 1,Digital,	145.63750,	145.03750,,1,2,None,Default,None,Text,Text,,,,Master,No,No,No,120,Off,No,No,None,0,0,Yes
531,Oulu 2,Digital,	434.57500,	432.57500,,1,2,None,Default,None,Text,Text,,,,Master,No,No,No,120,Off,No,No,None,0,0,Yes
532,Oulu 3,Analogue,	145.75000,	145.15000,12.5,,,,,,,,None,None,Disabled,Master,No,No,No,120,Off,No,No,None,65.0158,25.4965,Yes
533,Oulu 4,Analogue,	434.75000,	432.75000,12.5,,,,,,,,None,None,Disabled,Master,No,No,No,120,Off,No,No,None,64.901,25.5421,Yes
534,Oulu 5,Analogue,	434.97500,	432.97500,12.5,,,,,,,,114.8,114.8,Disabled,Master,No,No,No,120,Off,No,No,None,65.0602,25.473,Yes
535,Parainen,Analogue,	434.85000,	433.25000,12.5,,,,,,,,None,None,Disabled,Master,No,No,No,120,Off,No,No,None,60.302,22.291,Yes
536,Pattijoki,Analogue,	434.92500,	432.92500,12.5,,,,,,,,114.8,114.8,Disabled,Master,No,No,No,120,Off,No,No,None,64.6848,24.5692,Yes
537,Pieksamaki 1,Analogue,	434.80000,	432.80000,12.5,,,,,,,,None,None,Disabled,Master,No,No,No,120,Off,No,No,None,62.3,27.133,Yes
538,Pieksamaki 2,Analogue,	145.67500,	145.07500,12.5,,,,,,,,None,None,Disabled,Master,No,No,No,120,Off,No,No,None,62.3,27.133,Yes
539,Pihtipudas,Analogue,	145.77500,	145.17500,12.5,,,,,,,,None,None,Disabled,Master,No,No,No,120,Off,No,No,None,63.376,25.575,Yes
540,Pori,Digital,	434.56250,	432.56250,,1,2,None,Default,None,Text,Text,,,,Master,No,No,No,120,Off,No,No,None,0,0,Yes
541,Porvoo 1,Digital,	434.53750,	432.53750,,1,2,None,Default,None,Text,Text,,,,Master,No,No,No,120,Off,No,No,None,0,0,Yes
542,Porvoo 2,Analogue,	434.87500,	432.87500,12.5,,,,,,,,None,None,Disabled,Master,No,No,No,120,Off,No,No,None,60.398,25.669,Yes
543,Raasepori,Digital,	434.55000,	432.55000,,1,2,None,Default,None,Text,Text,,,,Master,No,No,No,120,Off,No,No,None,0,0,Yes
544,Rauma,Analogue,	434.67500,	433.07500,12.5,,,,,,,,None,None,Disabled,Master,No,No,No,120,Off,No,No,None,61.134,21.505,Yes
545,Riihimaki,Analogue,	434.67500,	432.67500,12.5,,,,,,,,None,None,Disabled,Master,No,No,No,120,Off,No,No,None,60.7565,24.8001,Yes
546,Rovaniemi 1,Analogue,	145.70000,	145.10000,12.5,,,,,,,,None,None,Disabled,Master,No,No,No,120,Off,No,No,None,66.6087,25.8401,Yes
547,Rovaniemi 2,Analogue,	434.70000,	432.70000,12.5,,,,,,,,None,None,Disabled,Master,No,No,No,120,Off,No,No,None,66.6087,25.8401,Yes
548,Saarijarvi F,Digital,	434.51250,	432.51250,,1,2,None,Default,None,Text,Text,,,,Master,No,No,No,120,Off,No,No,None,62.7583,25.6024,Yes
549,Salo 1,Analogue,	145.70000,	145.10000,12.5,,,,,,,,None,None,Disabled,Master,No,No,No,120,Off,No,No,None,60.4,23.12,Yes
550,Salo 2,Analogue,	434.70000,	433.10000,12.5,,,,,,,,None,None,Disabled,Master,No,No,No,120,Off,No,No,None,60.4,23.12,Yes
551,Savonlinna,Analogue,	145.62500,	145.02500,12.5,,,,,,,,103.5,103.5,Disabled,Master,No,No,No,120,Off,No,No,None,61.83,28.83,Yes
552,Seinajoki 1,Analogue,	434.67500,	432.67500,12.5,,,,,,,,110.9,110.9,Disabled,Master,No,No,No,120,Off,No,No,None,62.798,22.832,Yes
553,Seinajoki 2,Analogue,	145.67500,	145.07500,12.5,,,,,,,,110.9,110.9,Disabled,Master,No,No,No,120,Off,No,No,None,62.798,22.832,Yes
554,Tampere 1,Digital,	145.57500,	144.97500,,1,2,None,Default,None,Text,Text,,,,Master,No,No,No,120,Off,No,No,None,0,0,Yes
555,Tampere 2 F,Digital,	434.52500,	432.52500,,1,2,None,Default,None,Text,Text,,,,Master,No,No,No,120,Off,No,No,None,61.4536,23.8323,Yes
556,Tampere 3 F,Digital,	434.55000,	432.55000,,1,2,None,Default,None,Text,Text,,,,Master,No,No,No,120,Off,No,No,None,61.5077,23.6207,Yes
557,Tampere 4,Analogue,	145.75000,	145.15000,12.5,,,,,,,,123.0,123.0,Disabled,Master,No,No,No,120,Off,No,No,None,61.505,23.743,Yes
558,Tampere 5,Analogue,	434.85000,	432.85000,12.5,,,,,,,,123.0,123.0,Disabled,Master,No,No,No,120,Off,No,No,None,61.505,23.7433,Yes
559,Tervola 1,Digital,	145.78750,	145.18750,,1,2,None,Default,None,Text,Text,,,,Master,No,No,No,120,Off,No,No,None,0,0,Yes
560,Tervola 2,Analogue,	145.77500,	145.17500,12.5,,,,,,,,None,None,Disabled,Master,No,No,No,120,Off,No,No,None,66.1167,24.6989,Yes
561,Teuva,Analogue,	434.92500,	433.32500,12.5,,,,,,,,None,None,Disabled,Master,No,No,No,120,Off,No,No,None,62.483,21.733,Yes
562,Tornio,Analogue,	434.77500,	433.17500,12.5,,,,,,,,None,None,Disabled,Master,No,No,No,120,Off,No,No,None,65.768,24.1821,Yes
563,Turku,Analogue,	145.77500,	145.17500,12.5,,,,,,,,None,None,Disabled,Master,No,No,No,120,Off,No,No,None,60.4792,22.2083,Yes
564,Uusikaupunki,Analogue,	434.82500,	433.22500,12.5,,,,,,,,None,None,Disabled,Master,No,No,No,120,Off,No,No,None,60.801,21.411,Yes
565,Vaasa 1,Analogue,	434.75000,	432.75000,12.5,,,,,,,,None,None,Disabled,Master,No,No,No,120,Off,No,No,None,63.1,21.6,Yes
566,Vaasa 2,Analogue,	145.75000,	145.15000,12.5,,,,,,,,None,None,Disabled,Master,No,No,No,120,Off,No,No,None,63.1,21.6,Yes
567,Vantaa 1,Digital,	434.52500,	432.52500,,1,2,None,Default,None,Text,Text,,,,Master,No,No,No,120,Off,No,No,None,0,0,Yes
568,Vantaa 2,Analogue,	434.90000,	432.90000,12.5,,,,,,,,None,None,Disabled,Master,No,No,No,120,Off,No,No,None,60.285,25.05,Yes
569,Vesijako,Analogue,	434.80000,	432.80000,12.5,,,,,,,,None,None,Disabled,Master,No,No,No,120,Off,No,No,None,61.3542,25.0417,Yes
570,Viitasaari,Digital,	434.56250,	432.56250,,1,2,None,Default,None,Text,Text,,,,Master,No,No,No,120,Off,No,No,None,0,0,Yes
571,Virrat,Digital,	434.90000,	432.90000,,0,2,None,Default,None,Text,Text,,,,Master,No,No,No,120,Off,No,No,None,62.27,23.7,Yes
572,Ylivieska 1,Digital,	145.58750,	144.98750,,1,2,None,Default,None,Text,Text,,,,Master,No,No,No,120,Off,No,No,None,0,0,Yes
573,Ylivieska 2,Analogue,	434.60000,	432.60000,12.5,,,,,,,,None,None,Disabled,Master,No,No,No,120,Off,No,No,None,64.083,24.55,Yes
574,Yllastunturi,Analogue,	434.65000,	433.05000,12.5,,,,,,,,None,None,Disabled,Master,No,No,No,120,Off,No,No,None,67.5667,24.07,Yes
575,Aarhus,Digital,	434.57500,	432.57500,,12,2,None,Default,None,Text,Text,,,,Master,No,No,No,120,Off,No,No,None,56.125,10.1666,Yes
576,Aalborg 1,Analogue,	145.65000,	145.05000,12.5,,,,,,,,94.8,94.8,Disabled,Master,No,No,No,120,Off,No,No,None,56.8888,9.819,Yes
577,Aalborg 2,Analogue,	434.96250,	432.96250,12.5,,,,,,,,94.8,94.8,Disabled,Master,No,No,No,120,Off,No,No,None,57.0529,9.9174,Yes
578,Aalborg 3 +,Digital,	434.68750,	432.68750,,11,2,None,Default,None,Text,Text,,,,Master,No,No,No,120,Off,No,No,None,56.8888,9.819,Yes
579,Bandholm,Analogue,	145.65000,	145.05000,12.5,,,,,,,,82.5,82.5,Disabled,Master,No,No,No,120,Off,No,No,None,54.837,11.48,Yes
580,Dutterhoj,Analogue,	434.92500,	432.92500,12.5,,,,,,,,110.9,110.9,Disabled,Master,No,No,No,120,Off,No,No,None,55.8249,11.5361,Yes
581,Esbjerg 1,Analogue,	145.65000,	145.05000,12.5,,,,,,,,88.5,88.5,Disabled,Master,No,No,No,120,Off,No,No,None,55.4792,8.4583,Yes
582,Esbjerg 2,Analogue,	434.96250,	432.96250,12.5,,,,,,,,88.5,88.5,Disabled,Master,No,No,No,120,Off,No,No,None,55.5111,8.4384,Yes
583,Eskebjerg,Analogue,	434.80000,	432.80000,12.5,,,,,,,,None,None,Disabled,Master,No,No,No,120,Off,No,No,None,55.712,11.306,Yes
584,Fredericia,Analogue,	145.78750,	145.18750,12.5,,,,,,,,127.3,127.3,Disabled,Master,No,No,No,120,Off,No,No,None,55.5,9.6666,Yes
585,Frederikshavn 1,Digital,	434.71250,	432.71250,,11,2,None,Default,None,Text,Text,,,,Master,No,No,No,120,Off,No,No,None,0,0,Yes
586,Frederikshavn 2,Analogue,	434.97500,	432.97500,12.5,,,,,,,,None,None,Disabled,Master,No,No,No,120,Off,No,No,None,0,0,Yes
587,Frederikshavn 3,Analogue,	434.82500,	432.82500,12.5,,,,,,,,94.8,94.8,Disabled,Master,No,No,No,120,Off,No,No,None,57.4375,10.5417,Yes
588,Fredrikstad 4,Digital,	434.62500,	432.62500,,11,2,None,Default,None,Text,Text,,,,Master,No,No,No,120,Off,No,No,None,0,0,Yes
589,Gilleleje,Digital,	434.85000,	432.85000,,14,2,None,Default,None,Text,Text,,,,Master,No,No,No,120,Off,No,No,None,56.1013,12.3217,Yes
590,Gorlose,Digital,	434.70000,	432.70000,,14,2,None,Default,None,Text,Text,,,,Master,No,No,No,120,Off,No,No,None,55.8712,12.1938,Yes
591,Grenaa,Analogue,	145.66250,	145.06250,12.5,,,,,,,,82.5,82.5,Disabled,Master,No,No,No,120,Off,No,No,None,56.438,10.875,Yes
592,Hanstholm,Analogue,	145.73750,	145.13750,12.5,,,,,,,,94.8,94.8,Disabled,Master,No,No,No,120,Off,No,No,None,57.1042,8.625,Yes
593,Helsingor 1,Analogue,	145.61250,	145.01250,12.5,,,,,,,,None,None,Disabled,Master,No,No,No,120,Off,No,No,None,56.0228,12.5573,Yes
594,Helsingor 2,Digital,	434.63750,	432.63750,,0,2,None,Default,None,Text,Text,,,,Master,No,No,No,120,Off,No,No,None,56.0228,12.5573,Yes
595,Herlev,Digital,	434.62500,	432.62500,,14,2,None,Default,None,Text,Text,,,,Master,No,No,No,120,Off,No,No,None,55.7315,12.4438,Yes
596,Herning,Digital,	434.71250,	432.71250,,12,2,None,Default,None,Text,Text,,,,Master,No,No,No,120,Off,No,No,None,0,0,Yes
597,Herning 2,Analogue,	145.62500,	145.02500,12.5,,,,,,,,77.0,77.0,Disabled,Master,No,No,No,120,Off,No,No,None,56.2302,9.1633,Yes
598,Hillerod,Digital,	434.68750,	432.68750,,9,2,None,Default,None,Text,Text,,,,Master,No,No,No,120,Off,No,No,None,0,0,Yes
599,Hjorring,Analogue,	145.61250,	145.01250,12.5,,,,,,,,94.8,94.8,Disabled,Master,No,No,No,120,Off,No,No,None,57.4647,9.9394,Yes
600,Hobro,Analogue,	434.72500,	432.72500,12.5,,,,,,,,94.8,94.8,Disabled,Master,No,No,No,120,Off,No,No,None,56.7266,9.8221,Yes
601,Hundborg,Analogue,	145.78750,	145.18750,12.5,,,,,,,,94.8,94.8,Disabled,Master,No,No,No,120,Off,No,No,None,56.9166,8.4166,Yes
602,Knivsbjerg 1,Analogue,	434.72500,	432.72500,12.5,,,,,,,,None,None,Disabled,Master,No,No,No,120,Off,No,No,None,55.1422,9.4374,Yes
603,Knivsbjerg 2,Analogue,	145.72500,	145.12500,12.5,,,,,,,,None,None,Disabled,Master,No,No,No,120,Off,No,No,None,55.1422,9.4374,Yes
604,Maribo,Analogue,	434.82500,	432.82500,12.5,,,,,,,,None,None,Disabled,Master,No,No,No,120,Off,No,No,None,54.7754,11.4849,Yes
605,Nykobing LI,Analogue,	433.50000,	433.50000,12.5,,,,,,,,None,None,Disabled,Master,No,No,No,120,Off,No,No,None,54.7753,11.8748,Yes
606,Naestved,Digital,	434.60000,	432.60000,,15,2,None,Default,None,Text,Text,,,,Master,No,No,No,120,Off,No,No,None,0,0,Yes
607,Odense,Analogue,	145.65000,	145.05000,12.5,,,,,,,,None,None,Disabled,Master,No,No,No,120,Off,No,No,None,55.3958,10.375,Yes
608,Randers,Analogue,	145.72500,	145.12500,12.5,,,,,,,,77.0,77.0,Disabled,Master,No,No,No,120,Off,No,No,None,56.4792,10.0417,Yes
609,Regnemark,Digital,	434.63750,	432.63750,,9,2,None,Default,None,Text,Text,,,,Master,No,No,No,120,Off,No,No,None,55.4633,12.0079,Yes
610,Ringsted 1,Analogue,	434.62500,	432.62500,12.5,,,,,,,,82.5,82.5,Disabled,Master,No,No,No,120,Off,No,No,None,55.4397,11.7962,Yes
611,Ringsted 2,Analogue,	145.62500,	145.02500,12.5,,,,,,,,82.5,82.5,Disabled,Master,No,No,No,120,Off,No,No,None,55.5,11.8333,Yes
612,Ringsted 3,Analogue,	434.86250,	432.86250,12.5,,,,,,,,82.5,82.5,Disabled,Master,No,No,No,120,Off,No,No,None,55.5,11.8333,Yes
613,Roret,Analogue,	145.70000,	145.10000,12.5,,,,,,,,82.5,82.5,Disabled,Master,No,No,No,120,Off,No,No,None,55.729,12.459,Yes
614,Roskilde,Analogue,	434.87500,	432.87500,12.5,,,,,,,,82.5,82.5,Disabled,Master,No,No,No,120,Off,No,No,None,55.6414,12.1208,Yes
615,Skive,Analogue,	145.75000,	145.15000,12.5,,,,,,,,None,None,Disabled,Master,No,No,No,120,Off,No,No,None,56.585,9,Yes
616,Skjern,Digital,	434.77500,	432.77500,,12,2,None,Default,None,Text,Text,,,,Master,No,No,No,120,Off,No,No,None,0,0,Yes
617,Svendborg 1,Analogue,	145.75000,	145.15000,12.5,,,,,,,,71.9,71.9,Disabled,Master,No,No,No,120,Off,No,No,None,55.099,10.567,Yes
618,Svendborg 2 E,Analogue,	434.87500,	432.87500,12.5,,,,,,,,71.9,71.9,Disabled,Master,No,No,No,120,Off,No,No,None,55.099,10.567,Yes
619,Saby,Analogue,	145.77500,	145.17500,12.5,,,,,,,,None,None,Disabled,Master,No,No,No,120,Off,No,No,None,57.3314,10.5104,Yes
620,Sarpsborg,Digital,	434.81250,	432.81250,,1,2,None,Default,None,Text,Text,,,,Master,No,No,No,120,Off,No,No,None,0,0,Yes
621,Skjoldbjerg,Analogue,	145.73750,	145.13750,12.5,,,,,,,,77.0,77.0,Disabled,Master,No,No,No,120,Off,No,No,None,56.7083,9.0833,Yes
622,Soerup,Analogue,	145.68750,	145.08750,12.5,,,,,,,,82.5,82.5,Disabled,Master,No,No,No,120,Off,No,No,None,55.2083,11.9166,Yes
623,Them,Analogue,	145.63750,	145.03750,12.5,,,,,,,,None,None,Disabled,Master,No,No,No,120,Off,No,No,None,56.2083,8.1666,Yes
624,Torphoej,Analogue,	145.77500,	145.17500,12.5,,,,,,,,88.5,88.5,Disabled,Master,No,No,No,120,Off,No,No,None,55.875,9.3333,Yes
625,Vejby,Analogue,	145.72500,	145.12500,12.5,,,,,,,,82.5,82.5,Disabled,Master,No,No,No,120,Off,No,No,None,56.063,12.125,Yes
626,Vejle,Analogue,	434.92500,	432.92500,12.5,,,,,,,,None,None,Disabled,Master,No,No,No,120,Off,No,No,None,55.7076,9.5368,Yes
627,Vejrhoj,Analogue,	145.60000,	145.00000,12.5,,,,,,,,82.5,82.5,Disabled,Master,No,No,No,120,Off,No,No,None,55.8076,11.3951,Yes
628,Vestjylland,Analogue,	145.60000,	145.00000,12.5,,,,,,,,77.0,77.0,Disabled,Master,No,No,No,120,Off,No,No,None,56.0843,8.3977,Yes
629,Vissenbjerg,Analogue,	145.70000,	145.10000,12.5,,,,,,,,71.9,71.9,Disabled,Master,No,No,No,120,Off,No,No,None,55.3958,10.125,Yes
630,Vodskov,Digital,	434.67500,	432.67500,,11,2,None,Default,None,Text,Text,,,,Master,No,No,No,120,Off,No,No,None,57.114,10.031,Yes
631,Vongshoj,Analogue,	145.61250,	145.01250,12.5,,,,,,,,None,None,Disabled,Master,No,No,No,120,Off,No,No,None,55.1042,8.9583,Yes
632,Ydby,Analogue,	145.70000,	145.10000,12.5,,,,,,,,94.8,94.8,Disabled,Master,No,No,No,120,Off,No,No,None,56.6666,8.3333,Yes
633,Yding,Digital,	434.67500,	432.67500,,12,2,None,Default,None,Text,Text,,,,Master,No,No,No,120,Off,No,No,None,0,0,Yes
634,Yding 2,Analogue,	434.75000,	432.75000,12.5,,,,,,,,77.0,77.0,Disabled,Master,No,No,No,120,Off,No,No,None,55.9925,9.7958,Yes
635,Yding 3,Analogue,	145.67500,	145.07500,12.5,,,,,,,,77.0,77.0,Disabled,Master,No,No,No,120,Off,No,No,None,55.9583,9.75,Yes
636,Yding 4,Digital,	434.51250,	432.51250,,12,2,None,Default,None,Text,Text,,,,Master,No,No,No,120,Off,No,No,None,55.9583,9.75,Yes
637,Ostermarie,Analogue,	145.65000,	145.05000,12.5,,,,,,,,None,None,Disabled,Master,No,No,No,120,Off,No,No,None,55.1458,14.7917,Yes
638,pi-star,Digital,	433.01250,	433.01250,,1,2,None,Default,None,Text,Text,,,,P1,No,No,No,120,Off,No,No,None,0,0,Yes
639,openSPOT2,Digital,	433.90000,	433.90000,,1,2,None,Default,None,Text,Text,,,,P1,No,No,No,120,Off,No,No,None,0,0,Yes
640,Crossbandsrptr,Analogue,	434.42500,	434.42500,12.5,,,,,,,,None,91.5,Disabled,P1,No,No,No,120,Off,No,No,None,0,0,Yes
641,XIL,Digital,	434.47500,	434.47500,,1,1,None,Default,None,Text,Text,,,,P1,No,No,No,120,Off,No,No,None,0,0,Yes
642,	145.500,Analogue,	145.50000,	145.50000,12.5,,,,,,,,None,None,Disabled,Master,No,No,No,120,Off,No,No,None,0,0,Yes
643,	433.500,Analogue,	433.50000,	433.50000,12.5,,,,,,,,None,None,Disabled,Master,No,No,No,120,Off,No,No,None,0,0,Yes
644,	145.375,Digital,	145.37500,	145.37500,,1,1,None,Default,None,Text,Text,,,,Master,No,No,No,120,Off,No,No,None,0,0,Yes
645,	433.450,Digital,	433.45000,	433.45000,,1,1,None,Default,None,Text,Text,,,,Master,No,No,No,120,Off,No,No,None,0,0,Yes
646,	145.225,Analogue,	145.22500,	145.22500,12.5,,,,,,,,None,None,Disabled,Master,No,No,No,120,Off,No,No,None,0,0,Yes
647,	145.450,Analogue,	145.45000,	145.45000,12.5,,,,,,,,None,None,Disabled,Master,No,No,No,120,Off,No,No,None,0,0,Yes
648,HS DMR,Digital,	434.47500,	434.47500,,1,2,None,Default,None,Text,Text,,,,P1,No,No,No,120,Off,No,No,None,0,0,Yes
649,APRS 1,Analogue,	144.80000,	144.80000,12.5,,,,,,,,None,None,Disabled,Master,No,No,No,120,Off,No,No,None,0,0,Yes
650,APRS 2,Analogue,	432.50000,	432.50000,12.5,,,,,,,,None,None,Disabled,Master,No,No,No,120,Off,No,No,None,0,0,Yes
651,APRS US,Analogue,	144.39000,	144.39000,12.5,,,,,,,,None,None,Disabled,Master,No,No,No,120,Off,No,No,None,0,0,Yes
652,APRS ISS,Analogue,	145.82500,	145.82500,12.5,,,,,,,,None,None,Disabled,Master,No,No,No,120,Off,No,No,None,0,0,Yes
653,PMR 1,Analogue,	446.00625,	446.00625,12.5,,,,,,,,None,62.5,Disabled,Master,No,No,No,120,Off,No,No,None,0,0,Yes
654,PMR 2,Analogue,	446.01875,	446.01875,12.5,,,,,,,,None,62.5,Disabled,Master,No,No,No,120,Off,No,No,None,0,0,Yes
655,PMR 3,Analogue,	446.03125,	446.03125,12.5,,,,,,,,None,62.5,Disabled,Master,No,No,No,120,Off,No,No,None,0,0,Yes
656,PMR 4,Analogue,	446.04375,	446.04375,12.5,,,,,,,,None,62.5,Disabled,Master,No,No,No,120,Off,No,No,None,0,0,Yes
657,PMR 5,Analogue,	446.05625,	446.05625,12.5,,,,,,,,None,62.5,Disabled,Master,No,No,No,120,Off,No,No,None,0,0,Yes
658,PMR 6,Analogue,	446.06875,	446.06875,12.5,,,,,,,,None,62.5,Disabled,Master,No,No,No,120,Off,No,No,None,0,0,Yes
659,PMR 7,Analogue,	446.08125,	446.08125,12.5,,,,,,,,None,62.5,Disabled,Master,No,No,No,120,Off,No,No,None,0,0,Yes
660,PMR 8,Analogue,	446.09375,	446.09375,12.5,,,,,,,,None,62.5,Disabled,Master,No,No,No,120,Off,No,No,None,0,0,Yes
661,PMR 9,Analogue,	446.10625,	446.10625,12.5,,,,,,,,None,62.5,Disabled,Master,No,No,No,120,Off,No,No,None,0,0,Yes
662,PMR 10,Analogue,	446.11875,	446.11875,12.5,,,,,,,,None,62.5,Disabled,Master,No,No,No,120,Off,No,No,None,0,0,Yes
663,PMR 11,Analogue,	446.13125,	446.13125,12.5,,,,,,,,None,62.5,Disabled,Master,No,No,No,120,Off,No,No,None,0,0,Yes
664,PMR 12,Analogue,	446.14375,	446.14375,12.5,,,,,,,,None,62.5,Disabled,Master,No,No,No,120,Off,No,No,None,0,0,Yes
665,PMR 13,Analogue,	446.15625,	446.15625,12.5,,,,,,,,None,62.5,Disabled,Master,No,No,No,120,Off,No,No,None,0,0,Yes
666,PMR 14,Analogue,	446.16875,	446.16875,12.5,,,,,,,,None,62.5,Disabled,Master,No,No,No,120,Off,No,No,None,0,0,Yes
667,PMR 15,Analogue,	446.18125,	446.18125,12.5,,,,,,,,None,62.5,Disabled,Master,No,No,No,120,Off,No,No,None,0,0,Yes
668,PMR 16,Analogue,	446.19375,	446.19375,12.5,,,,,,,,None,62.5,Disabled,Master,No,No,No,120,Off,No,No,None,0,0,Yes
669,	156.000,Analogue,	156.00000,	156.00000,12.5,,,,,,,,None,None,Disabled,Master,No,No,No,120,Off,No,No,None,0,0,Yes
670,SRBR 1,Analogue,	444.60000,	444.60000,12.5,,,,,,,,None,62.5,Disabled,Master,No,No,No,120,Off,No,No,None,0,0,Yes
671,SRBR 2,Analogue,	444.65000,	444.65000,12.5,,,,,,,,None,62.5,Disabled,Master,No,No,No,120,Off,No,No,None,0,0,Yes
672,SRBR 3,Analogue,	444.80000,	444.80000,12.5,,,,,,,,None,62.5,Disabled,Master,No,No,No,120,Off,No,No,None,0,0,Yes
673,SRBR 4,Analogue,	444.82500,	444.82500,12.5,,,,,,,,None,62.5,Disabled,Master,No,No,No,120,Off,No,No,None,0,0,Yes
674,SRBR 5,Analogue,	444.85000,	444.85000,12.5,,,,,,,,None,62.5,Disabled,Master,No,No,No,120,Off,No,No,None,0,0,Yes
675,SRBR 6,Analogue,	444.87500,	444.87500,12.5,,,,,,,,None,62.5,Disabled,Master,No,No,No,120,Off,No,No,None,0,0,Yes
676,SRBR 7,Analogue,	444.92500,	444.92500,12.5,,,,,,,,None,62.5,Disabled,Master,No,No,No,120,Off,No,No,None,0,0,Yes
677,SRBR 8,Analogue,	444.97500,	444.97500,12.5,,,,,,,,None,62.5,Disabled,Master,No,No,No,120,Off,No,No,None,0,0,Yes
678,LPD 1,Analogue,	433.07500,	433.07500,12.5,,,,,,,,None,62.5,Disabled,Master,No,No,No,120,Off,No,No,None,0,0,Yes
679,LPD 2,Analogue,	433.10000,	433.10000,12.5,,,,,,,,None,62.5,Disabled,Master,No,No,No,120,Off,No,No,None,0,0,Yes
680,LPD 3,Analogue,	433.12500,	433.12500,12.5,,,,,,,,None,62.5,Disabled,Master,No,No,No,120,Off,No,No,None,0,0,Yes
681,LPD 4,Analogue,	433.15000,	433.15000,12.5,,,,,,,,None,62.5,Disabled,Master,No,No,No,120,Off,No,No,None,0,0,Yes
682,LPD 5,Analogue,	433.17500,	433.17500,12.5,,,,,,,,None,62.5,Disabled,Master,No,No,No,120,Off,No,No,None,0,0,Yes
683,LPD 6,Analogue,	433.20000,	433.20000,12.5,,,,,,,,None,62.5,Disabled,Master,No,No,No,120,Off,No,No,None,0,0,Yes
684,LPD 7,Analogue,	433.22500,	433.22500,12.5,,,,,,,,None,62.5,Disabled,Master,No,No,No,120,Off,No,No,None,0,0,Yes
685,LPD 8,Analogue,	433.25000,	433.25000,12.5,,,,,,,,None,62.5,Disabled,Master,No,No,No,120,Off,No,No,None,0,0,Yes
686,LPD 9,Analogue,	433.27500,	433.27500,12.5,,,,,,,,None,62.5,Disabled,Master,No,No,No,120,Off,No,No,None,0,0,Yes
687,LPD 10,Analogue,	433.30000,	433.30000,12.5,,,,,,,,None,62.5,Disabled,Master,No,No,No,120,Off,No,No,None,0,0,Yes
688,LPD 11,Analogue,	433.32500,	433.32500,12.5,,,,,,,,None,62.5,Disabled,Master,No,No,No,120,Off,No,No,None,0,0,Yes
689,LPD 12,Analogue,	433.35000,	433.35000,12.5,,,,,,,,None,62.5,Disabled,Master,No,No,No,120,Off,No,No,None,0,0,Yes
690,LPD 13,Analogue,	433.37500,	433.37500,12.5,,,,,,,,None,62.5,Disabled,Master,No,No,No,120,Off,No,No,None,0,0,Yes
691,LPD 14,Analogue,	433.40000,	433.40000,12.5,,,,,,,,None,62.5,Disabled,Master,No,No,No,120,Off,No,No,None,0,0,Yes
692,LPD 15,Analogue,	433.42500,	433.42500,12.5,,,,,,,,None,62.5,Disabled,Master,No,No,No,120,Off,No,No,None,0,0,Yes
693,LPD 16,Analogue,	433.45000,	433.45000,12.5,,,,,,,,None,62.5,Disabled,Master,No,No,No,120,Off,No,No,None,0,0,Yes
694,LPD 17,Analogue,	433.47500,	433.47500,12.5,,,,,,,,None,62.5,Disabled,Master,No,No,No,120,Off,No,No,None,0,0,Yes
695,LPD 18,Analogue,	433.50000,	433.50000,12.5,,,,,,,,None,62.5,Disabled,Master,No,No,No,120,Off,No,No,None,0,0,Yes
696,LPD 19,Analogue,	433.52500,	433.52500,12.5,,,,,,,,None,62.5,Disabled,Master,No,No,No,120,Off,No,No,None,0,0,Yes
697,LPD 20,Analogue,	433.55000,	433.55000,12.5,,,,,,,,None,62.5,Disabled,Master,No,No,No,120,Off,No,No,None,0,0,Yes
698,LPD 21,Analogue,	433.57500,	433.57500,12.5,,,,,,,,None,62.5,Disabled,Master,No,No,No,120,Off,No,No,None,0,0,Yes
699,LPD 22,Analogue,	433.60000,	433.60000,12.5,,,,,,,,None,62.5,Disabled,Master,No,No,No,120,Off,No,No,None,0,0,Yes
700,LPD 23,Analogue,	433.62500,	433.62500,12.5,,,,,,,,None,62.5,Disabled,Master,No,No,No,120,Off,No,No,None,0,0,Yes
701,LPD 24,Analogue,	433.65000,	433.65000,12.5,,,,,,,,None,62.5,Disabled,Master,No,No,No,120,Off,No,No,None,0,0,Yes
702,LPD 25,Analogue,	433.67500,	433.67500,12.5,,,,,,,,None,62.5,Disabled,Master,No,No,No,120,Off,No,No,None,0,0,Yes
703,LPD 26,Analogue,	433.70000,	433.70000,12.5,,,,,,,,None,62.5,Disabled,Master,No,No,No,120,Off,No,No,None,0,0,Yes
704,LPD 27,Analogue,	433.72500,	433.72500,12.5,,,,,,,,None,62.5,Disabled,Master,No,No,No,120,Off,No,No,None,0,0,Yes
705,LPD 28,Analogue,	433.75000,	433.75000,12.5,,,,,,,,None,62.5,Disabled,Master,No,No,No,120,Off,No,No,None,0,0,Yes
706,LPD 29,Analogue,	433.77500,	433.77500,12.5,,,,,,,,None,62.5,Disabled,Master,No,No,No,120,Off,No,No,None,0,0,Yes
707,LPD 30,Analogue,	433.80000,	433.80000,12.5,,,,,,,,None,62.5,Disabled,Master,No,No,No,120,Off,No,No,None,0,0,Yes
708,LPD 31,Analogue,	433.82500,	433.82500,12.5,,,,,,,,None,62.5,Disabled,Master,No,No,No,120,Off,No,No,None,0,0,Yes
709,LPD 32,Analogue,	433.85000,	433.85000,12.5,,,,,,,,None,62.5,Disabled,Master,No,No,No,120,Off,No,No,None,0,0,Yes
710,LPD 33,Analogue,	433.87500,	433.87500,12.5,,,,,,,,None,62.5,Disabled,Master,No,No,No,120,Off,No,No,None,0,0,Yes
711,LPD 34,Analogue,	433.90000,	433.90000,12.5,,,,,,,,None,62.5,Disabled,Master,No,No,No,120,Off,No,No,None,0,0,Yes
712,LPD 35,Analogue,	433.92500,	433.92500,12.5,,,,,,,,None,62.5,Disabled,Master,No,No,No,120,Off,No,No,None,0,0,Yes
713,LPD 36,Analogue,	433.95000,	433.95000,12.5,,,,,,,,None,62.5,Disabled,Master,No,No,No,120,Off,No,No,None,0,0,Yes
714,LPD 37,Analogue,	433.97500,	433.97500,12.5,,,,,,,,None,62.5,Disabled,Master,No,No,No,120,Off,No,No,None,0,0,Yes
715,LPD 38,Analogue,	434.00000,	434.00000,12.5,,,,,,,,None,62.5,Disabled,Master,No,No,No,120,Off,No,No,None,0,0,Yes
716,LPD 39,Analogue,	434.02500,	434.02500,12.5,,,,,,,,None,62.5,Disabled,Master,No,No,No,120,Off,No,No,None,0,0,Yes
717,LPD 40,Analogue,	434.05000,	434.05000,12.5,,,,,,,,None,62.5,Disabled,Master,No,No,No,120,Off,No,No,None,0,0,Yes
718,LPD 41,Analogue,	434.07500,	434.07500,12.5,,,,,,,,None,62.5,Disabled,Master,No,No,No,120,Off,No,No,None,0,0,Yes
719,LPD 42,Analogue,	434.10000,	434.10000,12.5,,,,,,,,None,62.5,Disabled,Master,No,No,No,120,Off,No,No,None,0,0,Yes
720,LPD 43,Analogue,	434.12500,	434.12500,12.5,,,,,,,,None,62.5,Disabled,Master,No,No,No,120,Off,No,No,None,0,0,Yes
721,LPD 44,Analogue,	434.15000,	434.15000,12.5,,,,,,,,None,62.5,Disabled,Master,No,No,No,120,Off,No,No,None,0,0,Yes
722,LPD 45,Analogue,	434.17500,	434.17500,12.5,,,,,,,,None,62.5,Disabled,Master,No,No,No,120,Off,No,No,None,0,0,Yes
723,LPD 46,Analogue,	434.20000,	434.20000,12.5,,,,,,,,None,62.5,Disabled,Master,No,No,No,120,Off,No,No,None,0,0,Yes
724,LPD 47,Analogue,	434.22500,	434.22500,12.5,,,,,,,,None,62.5,Disabled,Master,No,No,No,120,Off,No,No,None,0,0,Yes
725,LPD 48,Analogue,	434.25000,	434.25000,12.5,,,,,,,,None,62.5,Disabled,Master,No,No,No,120,Off,No,No,None,0,0,Yes
726,LPD 49,Analogue,	434.27500,	434.27500,12.5,,,,,,,,None,62.5,Disabled,Master,No,No,No,120,Off,No,No,None,0,0,Yes
727,LPD 50,Analogue,	434.30000,	434.30000,12.5,,,,,,,,None,62.5,Disabled,Master,No,No,No,120,Off,No,No,None,0,0,Yes
728,LPD 51,Analogue,	434.32500,	434.32500,12.5,,,,,,,,None,62.5,Disabled,Master,No,No,No,120,Off,No,No,None,0,0,Yes
729,LPD 52,Analogue,	434.35000,	434.35000,12.5,,,,,,,,None,62.5,Disabled,Master,No,No,No,120,Off,No,No,None,0,0,Yes
730,LPD 53,Analogue,	434.37500,	434.37500,12.5,,,,,,,,None,62.5,Disabled,Master,No,No,No,120,Off,No,No,None,0,0,Yes
731,LPD 54,Analogue,	434.40000,	434.40000,12.5,,,,,,,,None,62.5,Disabled,Master,No,No,No,120,Off,No,No,None,0,0,Yes
732,LPD 55,Analogue,	434.42500,	434.42500,12.5,,,,,,,,None,62.5,Disabled,Master,No,No,No,120,Off,No,No,None,0,0,Yes
733,LPD 56,Analogue,	434.45000,	434.45000,12.5,,,,,,,,None,62.5,Disabled,Master,No,No,No,120,Off,No,No,None,0,0,Yes
734,LPD 57,Analogue,	434.47500,	434.47500,12.5,,,,,,,,None,62.5,Disabled,Master,No,No,No,120,Off,No,No,None,0,0,Yes
735,LPD 58,Analogue,	434.50000,	434.50000,12.5,,,,,,,,None,62.5,Disabled,Master,No,No,No,120,Off,No,No,None,0,0,Yes
736,LPD 59,Analogue,	434.52500,	434.52500,12.5,,,,,,,,None,62.5,Disabled,Master,No,No,No,120,Off,No,No,None,0,0,Yes
737,LPD 60,Analogue,	434.55000,	434.55000,12.5,,,,,,,,None,62.5,Disabled,Master,No,No,No,120,Off,No,No,None,0,0,Yes
738,LPD 61,Analogue,	434.57500,	434.57500,12.5,,,,,,,,None,62.5,Disabled,Master,No,No,No,120,Off,No,No,None,0,0,Yes
739,LPD 62,Analogue,	434.60000,	434.60000,12.5,,,,,,,,None,62.5,Disabled,Master,No,No,No,120,Off,No,No,None,0,0,Yes
740,LPD 63,Analogue,	434.62500,	434.62500,12.5,,,,,,,,None,62.5,Disabled,Master,No,No,No,120,Off,No,No,None,0,0,Yes
741,LPD 64,Analogue,	434.65000,	434.65000,12.5,,,,,,,,None,62.5,Disabled,Master,No,No,No,120,Off,No,No,None,0,0,Yes
742,LPD 65,Analogue,	434.67500,	434.67500,12.5,,,,,,,,None,62.5,Disabled,Master,No,No,No,120,Off,No,No,None,0,0,Yes
743,LPD 66,Analogue,	434.70000,	434.70000,12.5,,,,,,,,None,62.5,Disabled,Master,No,No,No,120,Off,No,No,None,0,0,Yes
744,LPD 67,Analogue,	434.72500,	434.72500,12.5,,,,,,,,None,62.5,Disabled,Master,No,No,No,120,Off,No,No,None,0,0,Yes
745,LPD 68,Analogue,	434.75000,	434.75000,12.5,,,,,,,,None,62.5,Disabled,Master,No,No,No,120,Off,No,No,None,0,0,Yes
746,LPD 69,Analogue,	434.77500,	434.77500,12.5,,,,,,,,None,62.5,Disabled,Master,No,No,No,120,Off,No,No,None,0,0,Yes
747,Jakt-01,Analogue,	155.42500,	155.42500,25,,,,,,,,None,None,Disabled,Master,No,No,No,120,Off,No,No,None,0,0,Yes
748,Jakt-02,Analogue,	155.47500,	155.47500,25,,,,,,,,None,None,Disabled,Master,No,No,No,120,Off,No,No,None,0,0,Yes
749,Jakt-03,Analogue,	155.50000,	155.50000,25,,,,,,,,None,None,Disabled,Master,No,No,No,120,Off,No,No,None,0,0,Yes
750,Jakt-04,Analogue,	155.52500,	155.52500,25,,,,,,,,None,None,Disabled,Master,No,No,No,120,Off,No,No,None,0,0,Yes
751,Jakt-05,Analogue,	156.00000,	156.00000,25,,,,,,,,None,None,Disabled,Master,No,No,No,120,Off,No,No,None,0,0,Yes
752,Jakt-06,Analogue,	155.40000,	155.40000,25,,,,,,,,None,None,Disabled,Master,No,No,No,120,Off,No,No,None,0,0,Yes
753,Jakt-07,Analogue,	155.45000,	155.45000,25,,,,,,,,None,None,Disabled,Master,No,No,No,120,Off,No,No,None,0,0,Yes
754,Marin-VHF 01,Analogue,	160.65000,	156.05000,12.5,,,,,,,,None,None,Disabled,Master,No,No,No,120,Off,No,No,None,0,0,Yes
755,Marin-VHF 02,Analogue,	160.70000,	156.70000,12.5,,,,,,,,None,None,Disabled,Master,No,No,No,120,Off,No,No,None,0,0,Yes
756,Marin-VHF 03,Analogue,	160.75000,	156.15000,12.5,,,,,,,,None,None,Disabled,Master,No,No,No,120,Off,No,No,None,0,0,Yes
757,Marin-VHF 04,Analogue,	160.80000,	156.20000,12.5,,,,,,,,None,None,Disabled,Master,No,No,No,120,Off,No,No,None,0,0,Yes
758,Marin-VHF 05,Analogue,	160.85000,	156.25000,12.5,,,,,,,,None,None,Disabled,Master,No,No,No,120,Off,No,No,None,0,0,Yes
759,Marin-VHF 06,Analogue,	156.30000,	156.30000,12.5,,,,,,,,None,None,Disabled,Master,No,No,No,120,Off,No,No,None,0,0,Yes
760,Marin-VHF 07,Analogue,	160.95000,	156.35000,12.5,,,,,,,,None,None,Disabled,Master,No,No,No,120,Off,No,No,None,0,0,Yes
761,Marin-VHF 08,Analogue,	156.40000,	156.40000,12.5,,,,,,,,None,None,Disabled,Master,No,No,No,120,Off,No,No,None,0,0,Yes
762,Marin-VHF 09,Analogue,	156.45000,	156.45000,12.5,,,,,,,,None,None,Disabled,Master,No,No,No,120,Off,No,No,None,0,0,Yes
763,Marin-VHF 10,Analogue,	156.50000,	156.50000,12.5,,,,,,,,None,None,Disabled,Master,No,No,No,120,Off,No,No,None,0,0,Yes
764,Marin-VHF 11,Analogue,	156.55000,	156.55000,12.5,,,,,,,,None,None,Disabled,Master,No,No,No,120,Off,No,No,None,0,0,Yes
765,Marin-VHF 12,Analogue,	156.60000,	156.60000,12.5,,,,,,,,None,None,Disabled,Master,No,No,No,120,Off,No,No,None,0,0,Yes
766,Marin-VHF 13,Analogue,	156.65000,	156.65000,12.5,,,,,,,,None,None,Disabled,Master,No,No,No,120,Off,No,No,None,0,0,Yes
767,Marin-VHF 14,Analogue,	156.70000,	156.70000,12.5,,,,,,,,None,None,Disabled,Master,No,No,No,120,Off,No,No,None,0,0,Yes
768,Marin-VHF 15,Analogue,	156.75000,	156.75000,12.5,,,,,,,,None,None,Disabled,Master,No,No,No,120,Off,No,No,None,0,0,Yes
769,Marin-VHF 16,Analogue,	156.80000,	156.80000,12.5,,,,,,,,None,None,Disabled,Master,No,No,No,120,Off,No,No,None,0,0,Yes
770,Marin-VHF 17,Analogue,	156.85000,	156.86000,12.5,,,,,,,,None,None,Disabled,Master,No,No,No,120,Off,No,No,None,0,0,Yes
771,Marin-VHF 18,Analogue,	161.50000,	156.90000,12.5,,,,,,,,None,None,Disabled,Master,No,No,No,120,Off,No,No,None,0,0,Yes
772,Marin-VHF 19,Analogue,	161.55000,	156.95000,12.5,,,,,,,,None,None,Disabled,Master,No,No,No,120,Off,No,No,None,0,0,Yes
773,Marin-VHF 20,Analogue,	161.60000,	157.00000,12.5,,,,,,,,None,None,Disabled,Master,No,No,No,120,Off,No,No,None,0,0,Yes
774,Marin-VHF 21,Analogue,	161.65000,	157.05000,12.5,,,,,,,,None,None,Disabled,Master,No,No,No,120,Off,No,No,None,0,0,Yes
775,Marin-VHF 22,Analogue,	161.70000,	157.10000,12.5,,,,,,,,None,None,Disabled,Master,No,No,No,120,Off,No,No,None,0,0,Yes
776,Marin-VHF 23,Analogue,	161.75000,	157.15000,12.5,,,,,,,,None,None,Disabled,Master,No,No,No,120,Off,No,No,None,0,0,Yes
777,Marin-VHF 24,Analogue,	161.80000,	157.20000,12.5,,,,,,,,None,None,Disabled,Master,No,No,No,120,Off,No,No,None,0,0,Yes
778,Marin-VHF 25,Analogue,	161.85000,	157.25000,12.5,,,,,,,,None,None,Disabled,Master,No,No,No,120,Off,No,No,None,0,0,Yes
